[{"name": "69 Newton Heath", "type": "lock", "lat": 53.501522, "lon": -2.18175}, {"name": "71 Shears Lock", "type": "lock", "lat": 53.500229, "lon": -2.190688}, {"name": "72 Scothmans", "type": "lock", "lat": 53.499649, "lon": -2.192273}, {"name": "75 Slaters Higher", "type": "lock", "lat": 53.49646, "lon": -2.199082}, {"name": "Bear & Ragged Staff", "type": "pub", "lat": 51.030791, "lon": -1.523166}, {"name": "Alrewas Water Point", "type": "water_point", "lat": 52.735149, "lon": -1.749495}, {"name": "Alrewas Water Point", "type": "water_point", "lat": 52.735114, "lon": -1.749544}, {"name": "The Crown", "type": "pub", "lat": 51.466619, "lon": -0.976671}, {"name": "Fishery Inn", "type": "pub", "lat": 51.744293, "lon": -0.491059}, {"name": "Iron Bridge 77", "type": "lock", "lat": 51.664263, "lon": -0.426802}, {"name": "Harlow Mill Lock Water Point", "type": "water_point", "lat": 51.795075, "lon": 0.13224}, {"name": "hunsdon mill lock (upper gate)", "type": "lock", "lat": 51.782581, "lon": 0.059424}, {"name": "Roydon lock (lower gate)", "type": "lock", "lat": 51.775112, "lon": 0.042571}, {"name": "The White Horse", "type": "pub", "lat": 52.674549, "lon": -1.117596}, {"name": "The Onslow Arms", "type": "pub", "lat": 51.070299, "lon": -0.515182}, {"name": "The Bridle Lane Tavern", "type": "pub", "lat": 52.643892, "lon": -1.126632}, {"name": "Boat Inn", "type": "pub", "lat": 52.778534, "lon": -1.202623}, {"name": "Belan Bottom Lock", "type": "lock", "lat": 52.639733, "lon": -3.159234}, {"name": "The Waterside", "type": "pub", "lat": 51.472726, "lon": -0.18116}, {"name": "Farmers Bridge top lock", "type": "lock", "lat": 52.48078, "lon": -1.912188}, {"name": "Hardmead Lock", "type": "lock", "lat": 51.802028, "lon": -0.014508}, {"name": "River Crane Flood Gates", "type": "lock", "lat": 51.465409, "lon": -0.322784}, {"name": "Osterley Lock", "type": "lock", "lat": 51.496944, "lon": -0.332745}, {"name": "Town Lock", "type": "lock", "lat": 53.998059, "lon": -0.42887}, {"name": "The Angelic", "type": "pub", "lat": 51.534789, "lon": -0.107288}, {"name": "Clitheroe Lock", "type": "lock", "lat": 51.489131, "lon": -0.321452}, {"name": "The Red Lion", "type": "pub", "lat": 51.930734, "lon": -2.222491}, {"name": "Haw Bridge Inn", "type": "pub", "lat": 51.948834, "lon": -2.22765}, {"name": "The Saracen's Head", "type": "pub", "lat": 51.809857, "lon": -0.029429}, {"name": "Worsfold Gates", "type": "lock", "lat": 51.29123, "lon": -0.54436}, {"name": "Fleet Inn", "type": "pub", "lat": 52.027413, "lon": -2.140925}, {"name": "The Swan Hotel", "type": "pub", "lat": 52.06429, "lon": -2.215879}, {"name": "Plume of Feathers", "type": "pub", "lat": 52.228515, "lon": -1.078494}, {"name": "The Oxford Arms", "type": "pub", "lat": 51.540548, "lon": -0.144334}, {"name": "Second Sowerby Bridge Lock", "type": "lock", "lat": 53.709245, "lon": -1.906049}, {"name": "Second Sowerby Bridge Lock", "type": "lock", "lat": 53.709329, "lon": -1.906405}, {"name": "Staircase Bottom Lock Gate", "type": "lock", "lat": 52.981631, "lon": -2.710516}, {"name": "Walmgate Ale House", "type": "pub", "lat": 53.957135, "lon": -1.076975}, {"name": "Watergate Inn", "type": "pub", "lat": 53.957326, "lon": -1.07698}, {"name": "The Red Lion", "type": "pub", "lat": 53.957208, "lon": -1.077814}, {"name": "Lots Road", "type": "pub", "lat": 51.477673, "lon": -0.183343}, {"name": "The Royal Shepherd", "type": "pub", "lat": 53.961284, "lon": -2.018938}, {"name": "The Woolly Sheep Inn", "type": "pub", "lat": 53.960536, "lon": -2.017533}, {"name": "The Fleece", "type": "pub", "lat": 53.959018, "lon": -2.018119}, {"name": "Venue Sports And Music Bar", "type": "pub", "lat": 53.959438, "lon": -2.020712}, {"name": "Black Horse", "type": "pub", "lat": 53.962655, "lon": -2.01662}, {"name": "Ackroyds Wine Bar", "type": "pub", "lat": 53.963425, "lon": -2.017892}, {"name": "The Red Lion", "type": "pub", "lat": 53.962005, "lon": -2.016246}, {"name": "The Jolly Boatman", "type": "pub", "lat": 51.83539, "lon": -1.304626}, {"name": "Navigation", "type": "pub", "lat": 53.732384, "lon": -2.503521}, {"name": "George Abbot", "type": "pub", "lat": 51.234882, "lon": -0.577569}, {"name": "The Weyside", "type": "pub", "lat": 51.231484, "lon": -0.572782}, {"name": "Star Inn", "type": "pub", "lat": 51.235012, "lon": -0.574943}, {"name": "The Rodboro Buildings", "type": "pub", "lat": 51.23673, "lon": -0.577457}, {"name": "51 Gas 1 Lcok", "type": "lock", "lat": 51.765329, "lon": -0.573063}, {"name": "Hoe Mill Lock", "type": "lock", "lat": 51.743452, "lon": 0.616933}, {"name": "The New Scarisbrick Arms", "type": "pub", "lat": 53.554178, "lon": -2.959965}, {"name": "Hope & Anchor", "type": "pub", "lat": 52.696582, "lon": -1.099494}, {"name": "Scowcroft Lock", "type": "lock", "lat": 53.556135, "lon": -2.172279}, {"name": "The Great Western Arms", "type": "pub", "lat": 51.987303, "lon": -1.275963}, {"name": "Lock 12", "type": "lock", "lat": 56.001712, "lon": -3.805528}, {"name": "Lock 13", "type": "lock", "lat": 56.001173, "lon": -3.80693}, {"name": "Lock 14", "type": "lock", "lat": 56.000989, "lon": -3.808485}, {"name": "Lock 14", "type": "lock", "lat": 56.000974, "lon": -3.808918}, {"name": "Lock 14", "type": "lock", "lat": 56.000836, "lon": -3.810838}, {"name": "Lock 15", "type": "lock", "lat": 56.000433, "lon": -3.813177}, {"name": "Lock 15", "type": "lock", "lat": 56.00037, "lon": -3.813608}, {"name": "Lock 16", "type": "lock", "lat": 56.000058, "lon": -3.8154}, {"name": "The Red Lion", "type": "pub", "lat": 52.116579, "lon": -1.315975}, {"name": "Kings Norton stop lock", "type": "lock", "lat": 52.413285, "lon": -1.919185}, {"name": "Ye Olde Swan", "type": "pub", "lat": 51.392919, "lon": -0.331748}, {"name": "Lock 18", "type": "lock", "lat": 55.986681, "lon": -3.931332}, {"name": "Lock 18", "type": "lock", "lat": 55.986707, "lon": -3.930965}, {"name": "Lock 9", "type": "lock", "lat": 56.004034, "lon": -3.800192}, {"name": "The Rose Revived", "type": "pub", "lat": 51.710318, "lon": -1.416791}, {"name": "The Maybush", "type": "pub", "lat": 51.709604, "lon": -1.417393}, {"name": "Royal Oak", "type": "pub", "lat": 51.340508, "lon": -1.766511}, {"name": "Ship and Castle", "type": "pub", "lat": 50.798873, "lon": -1.10693}, {"name": "The Queens Head", "type": "pub", "lat": 51.731344, "lon": -0.025559}, {"name": "Stanstead lock", "type": "lock", "lat": 51.801853, "lon": -0.014205}, {"name": "stanstead lock", "type": "lock", "lat": 51.791144, "lon": 1e-05}, {"name": "Bee Hive", "type": "pub", "lat": 53.732547, "lon": -2.520892}, {"name": "The Station", "type": "pub", "lat": 53.732807, "lon": -2.519909}, {"name": "The Baring Arms", "type": "pub", "lat": 51.537057, "lon": -0.088477}, {"name": "Lock 1 (staircase top)", "type": "lock", "lat": 55.995707, "lon": -3.839117}, {"name": "Lock 2 (staircase)", "type": "lock", "lat": 55.995668, "lon": -3.839519}, {"name": "Lock 2 (staircase bottom)", "type": "lock", "lat": 55.995629, "lon": -3.839918}, {"name": "Falkirk Wheel", "type": "lock", "lat": 56.000236, "lon": -3.841706}, {"name": "The Colonel Fawcett", "type": "pub", "lat": 51.54181, "lon": -0.13599}, {"name": "Gardham Lock", "type": "lock", "lat": 53.899012, "lon": -0.891487}, {"name": "The Goyt Inn", "type": "pub", "lat": 53.330259, "lon": -1.983403}, {"name": "The Three Compasses", "type": "pub", "lat": 51.113572, "lon": -0.522141}, {"name": "The Navigation", "type": "pub", "lat": 53.397432, "lon": -2.351778}, {"name": "The Old Packet House", "type": "pub", "lat": 53.39779, "lon": -2.351881}, {"name": "Dog and Whistle (Pop-Up)", "type": "pub", "lat": 51.809809, "lon": -0.027283}, {"name": "Zouch Flood Lock", "type": "lock", "lat": 52.806596, "lon": -1.246422}, {"name": "Castle Lock", "type": "lock", "lat": 52.947908, "lon": -1.152199}, {"name": "Bootle Irish National Club", "type": "pub", "lat": 53.442787, "lon": -2.998605}, {"name": "The Kings Arms", "type": "pub", "lat": 53.762053, "lon": -0.701391}, {"name": "The Bull's Head", "type": "pub", "lat": 51.484475, "lon": -0.278357}, {"name": "The Woolpack", "type": "pub", "lat": 52.562191, "lon": -0.227834}, {"name": "Worsfold Gates", "type": "lock", "lat": 51.291414, "lon": -0.544204}, {"name": "The New Inn", "type": "pub", "lat": 51.29448, "lon": -0.541722}, {"name": "50 Bushes Lock", "type": "lock", "lat": 51.767637, "lon": -0.582178}, {"name": "Swan Inn", "type": "pub", "lat": 52.730937, "lon": -1.141414}, {"name": "Star & Garter", "type": "pub", "lat": 55.976655, "lon": -3.596334}, {"name": "Tardebigge Top Lock", "type": "lock", "lat": 52.321504, "lon": -2.010165}, {"name": "Pywell's Lock", "type": "lock", "lat": 52.548611, "lon": -1.025287}, {"name": "The Cheshire Cat", "type": "pub", "lat": 53.180279, "lon": -2.836181}, {"name": "Longwood Junction Sanitary Station", "type": "sanitary", "lat": 52.589761, "lon": -1.942856}, {"name": "Hollins Mill", "type": "pub", "lat": 53.70888, "lon": -1.912768}, {"name": "The Trout Inn", "type": "pub", "lat": 53.989294, "lon": -0.376966}, {"name": "Hebron Inn", "type": "pub", "lat": 51.693974, "lon": -3.898829}, {"name": "Orfold (Lording's) Lock", "type": "lock", "lat": 51.01075, "lon": -0.492889}, {"name": "The Fox", "type": "pub", "lat": 51.504244, "lon": -0.343334}, {"name": "Brighouse Upper Lock", "type": "lock", "lat": 53.700287, "lon": -1.776447}, {"name": "Brighouse Upper Lock", "type": "lock", "lat": 53.700335, "lon": -1.776744}, {"name": "Brookfoot Lock", "type": "lock", "lat": 53.701574, "lon": -1.797446}, {"name": "Brookfoot Lock", "type": "lock", "lat": 53.701472, "lon": -1.797702}, {"name": "Cromwell Lock", "type": "lock", "lat": 53.698832, "lon": -1.804391}, {"name": "Cromwell Lock", "type": "lock", "lat": 53.69873, "lon": -1.804651}, {"name": "Crooke Hall Inn", "type": "pub", "lat": 53.560823, "lon": -2.679047}, {"name": "King's Head", "type": "pub", "lat": 52.709455, "lon": -2.756408}, {"name": "Pitcher & Piano", "type": "pub", "lat": 52.478268, "lon": -1.912027}, {"name": "Bar Francisca", "type": "pub", "lat": 53.708815, "lon": -1.910482}, {"name": "The Brandy Wine", "type": "pub", "lat": 53.721997, "lon": -1.945324}, {"name": "The Narrow Boat", "type": "pub", "lat": 53.96104, "lon": -2.018985}, {"name": "The Horniman", "type": "pub", "lat": 51.506112, "lon": -0.082921}, {"name": "The Moby Dick", "type": "pub", "lat": 51.495464, "lon": -0.039551}, {"name": "The Foresters Arms", "type": "pub", "lat": 53.839449, "lon": -0.413918}, {"name": "The Sloop Inn", "type": "pub", "lat": 53.839098, "lon": -0.414263}, {"name": "The Anchor", "type": "pub", "lat": 52.183543, "lon": -2.219797}, {"name": "Crown & Anchor", "type": "pub", "lat": 52.196722, "lon": -2.23582}, {"name": "The Kings Head", "type": "pub", "lat": 52.187861, "lon": -2.21753}, {"name": "Oxnoble", "type": "pub", "lat": 53.47634, "lon": -2.25399}, {"name": "The Boat Inn", "type": "pub", "lat": 53.083887, "lon": -1.326901}, {"name": "Feildes Lock Bottom Gate", "type": "lock", "lat": 51.763433, "lon": 0.012989}, {"name": "Feildes Lock Top Gate", "type": "lock", "lat": 51.763747, "lon": 0.013032}, {"name": "Lime house lock no 25", "type": "lock", "lat": 53.32801, "lon": -1.197738}, {"name": "Battyeford Flood Lock", "type": "lock", "lat": 53.683725, "lon": -1.7248}, {"name": "Kirklees Low Lock", "type": "lock", "lat": 53.690334, "lon": -1.741599}, {"name": "Kirklees Top Lock", "type": "lock", "lat": 53.692327, "lon": -1.746392}, {"name": "Kirklees Top Lock", "type": "lock", "lat": 53.692338, "lon": -1.746778}, {"name": "Brighouse Lower Lock", "type": "lock", "lat": 53.699579, "lon": -1.775715}, {"name": "Brighouse Lower Lock", "type": "lock", "lat": 53.699715, "lon": -1.775924}, {"name": "Park Nook Lock", "type": "lock", "lat": 53.695588, "lon": -1.830158}, {"name": "Elland Lock", "type": "lock", "lat": 53.693283, "lon": -1.833714}, {"name": "Woodside Mills Lock", "type": "lock", "lat": 53.6884, "lon": -1.848147}, {"name": "Long Lees Lock", "type": "lock", "lat": 53.692893, "lon": -1.850796}, {"name": "Salterhebble Bottom Lock", "type": "lock", "lat": 53.697272, "lon": -1.856672}, {"name": "Salterhebble Middle Lock", "type": "lock", "lat": 53.69778, "lon": -1.857822}, {"name": "Salterhebble Middle Lock", "type": "lock", "lat": 53.697946, "lon": -1.857714}, {"name": "Salterhebble Top Lock", "type": "lock", "lat": 53.6985, "lon": -1.857307}, {"name": "Cross Foxes", "type": "pub", "lat": 52.704295, "lon": -2.746427}, {"name": "Osterley Lock", "type": "lock", "lat": 51.496677, "lon": -0.332531}, {"name": "Hanwell Lock", "type": "lock", "lat": 51.503898, "lon": -0.34478}, {"name": "The Marina", "type": "pub", "lat": 52.537015, "lon": -1.400297}, {"name": "Wharf Inn", "type": "pub", "lat": 52.535317, "lon": -1.395522}, {"name": "Huddersfield Narrow Canal lock 21W", "type": "lock", "lat": 53.545929, "lon": -2.008422}, {"name": "Huddersfield Narrow Canal Lock 28W", "type": "lock", "lat": 53.559523, "lon": -1.999759}, {"name": "Huddersfield Narrow Canal Lock 29W", "type": "lock", "lat": 53.560628, "lon": -1.99867}, {"name": "Huddersfield Narrow Canal Lock 31W", "type": "lock", "lat": 53.564715, "lon": -1.997099}, {"name": "Huddersfield Narrow Canal Lock 32W", "type": "lock", "lat": 53.565915, "lon": -1.99621}, {"name": "Pagefield Lock (88)", "type": "lock", "lat": 53.549523, "lon": -2.652942}, {"name": "Canal Tavern", "type": "pub", "lat": 51.442449, "lon": 0.382358}, {"name": "The Coleham Tap", "type": "pub", "lat": 52.703832, "lon": -2.749395}, {"name": "12, hunsdon mill lock (lower gate)", "type": "lock", "lat": 51.782377, "lon": 0.059353}, {"name": "13, Roydon lock (upper gate)", "type": "lock", "lat": 51.775143, "lon": 0.04303}, {"name": "The Greyhound", "type": "pub", "lat": 51.670387, "lon": -0.018159}, {"name": "The Saxon Mill", "type": "pub", "lat": 52.300943, "lon": -1.574227}, {"name": "First Sowerby Bridge Lock", "type": "lock", "lat": 53.709251, "lon": -1.904478}, {"name": "First Sowerby Bridge Lock", "type": "lock", "lat": 53.709272, "lon": -1.904096}, {"name": "Aston Lock", "type": "lock", "lat": 52.858217, "lon": -1.371045}, {"name": "Derwent Mouth Lock", "type": "lock", "lat": 52.871406, "lon": -1.325411}, {"name": "Victoria Inn", "type": "pub", "lat": 52.817421, "lon": -1.639495}, {"name": "Spon Lane Bottom Lock", "type": "lock", "lat": 52.507096, "lon": -2.003921}, {"name": "Wheeldon Mill Lock", "type": "lock", "lat": 53.260962, "lon": -1.412278}, {"name": "Hand and Dagger", "type": "pub", "lat": 53.791037, "lon": -2.815111}, {"name": "The Slug and Lettuce", "type": "pub", "lat": 51.458774, "lon": -0.30779}, {"name": "Dickens Inn", "type": "pub", "lat": 51.506752, "lon": -0.070218}, {"name": "Rawdon Arms", "type": "pub", "lat": 52.736491, "lon": -1.534942}, {"name": "Maryhill Top Lock 25", "type": "lock", "lat": 55.893075, "lon": -4.299791}, {"name": "The Banker", "type": "pub", "lat": 51.509393, "lon": -0.091624}, {"name": "Cheshire Ring", "type": "pub", "lat": 53.452803, "lon": -2.085994}, {"name": "Oldbury 4th Lock", "type": "lock", "lat": 52.497446, "lon": -2.00938}, {"name": "Oldbury 2nd Lock", "type": "lock", "lat": 52.498508, "lon": -2.009481}, {"name": "The Lamb", "type": "pub", "lat": 51.497156, "lon": -0.375732}, {"name": "Slaptop Lock Water Point", "type": "water_point", "lat": 51.872899, "lon": -0.651172}, {"name": "The Station Hotel", "type": "pub", "lat": 53.486697, "lon": -2.092217}, {"name": "Anchor Brewhouse", "type": "pub", "lat": 51.504108, "lon": -0.07531}, {"name": "The Ship Aground", "type": "pub", "lat": 51.500592, "lon": -0.070508}, {"name": "Tap & Spile", "type": "pub", "lat": 52.477561, "lon": -1.910677}, {"name": "Pennyblacks", "type": "pub", "lat": 52.475272, "lon": -1.906548}, {"name": "The Moretown Belle", "type": "pub", "lat": 51.507162, "lon": -0.067495}, {"name": "The Navigation", "type": "pub", "lat": 53.650428, "lon": -1.540272}, {"name": "The Bridge Inn", "type": "pub", "lat": 51.133705, "lon": -1.823918}, {"name": "Stratton Arms", "type": "pub", "lat": 52.036208, "lon": -1.125676}, {"name": "The Richmond", "type": "pub", "lat": 50.830649, "lon": -0.782158}, {"name": "Lock 3 bottom", "type": "lock", "lat": 56.001293, "lon": -3.841803}, {"name": "Lock 3 top", "type": "lock", "lat": 56.001073, "lon": -3.841774}, {"name": "Falkirk Wheel", "type": "lock", "lat": 56.000476, "lon": -3.841744}, {"name": "Charters", "type": "pub", "lat": 52.56814, "lon": -0.242141}, {"name": "Hollingwood Lock", "type": "lock", "lat": 53.26697, "lon": -1.378198}, {"name": "Navigation", "type": "pub", "lat": 53.074912, "lon": -0.816596}, {"name": "Royal Oak", "type": "pub", "lat": 51.916125, "lon": -3.319867}, {"name": "The White Hart", "type": "pub", "lat": 53.443562, "lon": -0.812167}, {"name": "The Grosvenor", "type": "pub", "lat": 51.486613, "lon": -0.131592}, {"name": "The Fishermans Arms", "type": "pub", "lat": 51.529606, "lon": -0.249311}, {"name": "Grand Junction Arms", "type": "pub", "lat": 51.53439, "lon": -0.260462}, {"name": "Brewhurst Lock No. 5", "type": "lock", "lat": 51.070046, "lon": -0.510583}, {"name": "Brewhurst Lock No. 5", "type": "lock", "lat": 51.069994, "lon": -0.510983}, {"name": "Baldwin's Knob Lock No. 4", "type": "lock", "lat": 51.069225, "lon": -0.500098}, {"name": "Baldwin's Knob Lock No. 4", "type": "lock", "lat": 51.06911, "lon": -0.50038}, {"name": "The Peacock Inn", "type": "pub", "lat": 52.911431, "lon": -0.81699}, {"name": "Orfold (Lording's) Lock", "type": "lock", "lat": 51.010958, "lon": -0.492346}, {"name": "Lammars", "type": "pub", "lat": 53.481122, "lon": -2.231494}, {"name": "Spinners Arms", "type": "pub", "lat": 53.481536, "lon": -2.358042}, {"name": "The Goose", "type": "pub", "lat": 53.477443, "lon": -2.237302}, {"name": "The Waldorf", "type": "pub", "lat": 53.479582, "lon": -2.233942}, {"name": "The Wellington Inn", "type": "pub", "lat": 53.483373, "lon": -2.361399}, {"name": "The Woodman", "type": "pub", "lat": 52.716172, "lon": -2.753284}, {"name": "The Royal Oak", "type": "pub", "lat": 52.715831, "lon": -2.753465}, {"name": "Loxwood New Lock No. 5A", "type": "lock", "lat": 51.070568, "lon": -0.51717}, {"name": "The Sun Hotel", "type": "pub", "lat": 53.8344, "lon": -1.77683}, {"name": "Welches Dam Lock", "type": "lock", "lat": 52.45071, "lon": 0.161351}, {"name": "The Ferry", "type": "pub", "lat": 52.206293, "lon": -1.656435}, {"name": "Barge Lock", "type": "lock", "lat": 51.133337, "lon": -3.003825}, {"name": "The Little Oak", "type": "pub", "lat": 53.192537, "lon": -2.875356}, {"name": "The Cross Foxes", "type": "pub", "lat": 53.192388, "lon": -2.879904}, {"name": "The Cornerhouse", "type": "pub", "lat": 53.192497, "lon": -2.881804}, {"name": "The Bulls Head", "type": "pub", "lat": 53.381723, "lon": -2.477286}, {"name": "Spread Eagle Hotel", "type": "pub", "lat": 53.380753, "lon": -2.479248}, {"name": "The Griffin", "type": "pub", "lat": 51.467343, "lon": -0.977328}, {"name": "Malthouse Farm", "type": "pub", "lat": 53.678065, "lon": -2.62005}, {"name": "Eastway Water Point", "type": "water_point", "lat": 51.547796, "lon": -0.026029}, {"name": "Royal Oak", "type": "pub", "lat": 52.819918, "lon": -1.640454}, {"name": "Navigation Inn", "type": "pub", "lat": 52.818057, "lon": -1.639712}, {"name": "The Swan In The Rushes", "type": "pub", "lat": 52.773619, "lon": -1.210101}, {"name": "Three Queens Hotel", "type": "pub", "lat": 52.807125, "lon": -1.625637}, {"name": "The Oxford Retreat", "type": "pub", "lat": 51.753343, "lon": -1.265202}, {"name": "The Old Crown", "type": "pub", "lat": 51.504778, "lon": -0.419294}, {"name": "Lapworth Lock 19 Water Point", "type": "water_point", "lat": 52.337178, "lon": -1.727895}, {"name": "The Bishop", "type": "pub", "lat": 51.410308, "lon": -0.308042}, {"name": "The Railway", "type": "pub", "lat": 53.740744, "lon": -2.011778}, {"name": "The Lock Keeper", "type": "pub", "lat": 53.193243, "lon": -2.88798}, {"name": "Oddfellows Arms", "type": "pub", "lat": 53.193029, "lon": -2.888466}, {"name": "The City Tavern", "type": "pub", "lat": 53.192303, "lon": -2.888273}, {"name": "Godmanchester Lock", "type": "lock", "lat": 52.317652, "lon": -0.180579}, {"name": "Godmanchester Lock", "type": "lock", "lat": 52.317404, "lon": -0.180843}, {"name": "The Royal Oak", "type": "pub", "lat": 52.318661, "lon": -0.175044}, {"name": "Black Bull", "type": "pub", "lat": 52.322297, "lon": -0.17575}, {"name": "Frankton Top Lock (Staircase 2)", "type": "lock", "lat": 52.879131, "lon": -2.938202}, {"name": "Boat Inn", "type": "pub", "lat": 53.506902, "lon": -1.192228}, {"name": "The Old Harkers Arms", "type": "pub", "lat": 53.19346, "lon": -2.881211}, {"name": "Peacock", "type": "pub", "lat": 53.848101, "lon": -1.837569}, {"name": "Kelseys", "type": "pub", "lat": 52.284162, "lon": -1.533232}, {"name": "The Mermaid", "type": "pub", "lat": 52.58281, "lon": -2.192952}, {"name": "The Fishermans Inn", "type": "pub", "lat": 53.841415, "lon": -1.822038}, {"name": "The Potting Shed", "type": "pub", "lat": 53.850355, "lon": -1.840313}, {"name": "The Old Library Wine Bar", "type": "pub", "lat": 53.848134, "lon": -1.837995}, {"name": "Saddlers Arms", "type": "pub", "lat": 53.381251, "lon": -2.479202}, {"name": "The Soloman Cutler", "type": "pub", "lat": 52.478063, "lon": -1.910094}, {"name": "The Plough", "type": "pub", "lat": 52.016184, "lon": -0.717475}, {"name": "The Bishop's Mill", "type": "pub", "lat": 51.069173, "lon": -1.798145}, {"name": "The Leggers Inn", "type": "pub", "lat": 53.683637, "lon": -1.623623}, {"name": "Drunken Duck", "type": "pub", "lat": 52.625743, "lon": -1.932949}, {"name": "Boatmans Rest", "type": "pub", "lat": 52.626402, "lon": -1.932322}, {"name": "Bingley Water Point", "type": "water_point", "lat": 53.859716, "lon": -1.84189}, {"name": "The Polwarth Tavern", "type": "pub", "lat": 55.938159, "lon": -3.218173}, {"name": "The Golden Rule", "type": "pub", "lat": 55.939057, "lon": -3.218785}, {"name": "The Fountain", "type": "pub", "lat": 55.940287, "lon": -3.217948}, {"name": "52 Gas 2 Lock", "type": "lock", "lat": 51.764906, "lon": -0.571799}, {"name": "52 Gas 2 Lock", "type": "lock", "lat": 51.764786, "lon": -0.571445}, {"name": "53", "type": "lock", "lat": 51.762324, "lon": -0.563833}, {"name": "53", "type": "lock", "lat": 51.762369, "lon": -0.564221}, {"name": "55 Rising Sun", "type": "lock", "lat": 51.759091, "lon": -0.556241}, {"name": "55 Rising Sun", "type": "lock", "lat": 51.759334, "lon": -0.556419}, {"name": "Ash Lock", "type": "lock", "lat": 51.258222, "lon": -0.738915}, {"name": "Ash Lock", "type": "lock", "lat": 51.25846, "lon": -0.739036}, {"name": "Union Vaults", "type": "pub", "lat": 53.193819, "lon": -2.883926}, {"name": "Welford Wharf Water Point", "type": "water_point", "lat": 52.422779, "lon": -1.054637}, {"name": "Market Harborough Water Point", "type": "water_point", "lat": 52.48442, "lon": -0.93136}, {"name": "The Castle Inn", "type": "pub", "lat": 51.629709, "lon": -3.128619}, {"name": "Philanthropic Inn", "type": "pub", "lat": 51.628842, "lon": -3.128568}, {"name": "The Towpath Inn", "type": "pub", "lat": 51.824419, "lon": -3.095404}, {"name": "Thames Barrier", "type": "lock", "lat": 51.496887, "lon": 0.037287}, {"name": "Beeston Iron Lock", "type": "lock", "lat": 53.134285, "lon": -2.667987}, {"name": "Salters Lode Lock", "type": "lock", "lat": 52.589168, "lon": 0.34006}, {"name": "Red Lion", "type": "pub", "lat": 53.193182, "lon": -2.893112}, {"name": "Stanley Arms", "type": "pub", "lat": 53.1946, "lon": -2.886821}, {"name": "Devil's Hole Lock, No. 6", "type": "lock", "lat": 51.071854, "lon": -0.525887}, {"name": "Loxwood New Lock No. 5A", "type": "lock", "lat": 51.070593, "lon": -0.516797}, {"name": "Devil's Hole Lock, No. 6", "type": "lock", "lat": 51.07183, "lon": -0.526319}, {"name": "Red Lion", "type": "pub", "lat": 52.000657, "lon": -0.714874}, {"name": "Forest Lock", "type": "lock", "lat": 51.520884, "lon": -3.245116}, {"name": "The Bridge House", "type": "pub", "lat": 51.458419, "lon": -2.117795}, {"name": "Old Crown", "type": "pub", "lat": 52.474517, "lon": -2.137214}, {"name": "Pewsham Middle Lock", "type": "lock", "lat": 51.437897, "lon": -2.092443}, {"name": "Pewsham Middle Lock", "type": "lock", "lat": 51.43812, "lon": -2.092327}, {"name": "Pewsham Bottom Lock", "type": "lock", "lat": 51.437225, "lon": -2.092882}, {"name": "Pewsham Bottom Lock", "type": "lock", "lat": 51.437486, "lon": -2.092708}, {"name": "Blowers Green Water Point", "type": "water_point", "lat": 52.497314, "lon": -2.098346}, {"name": "The Waterfront Inn", "type": "pub", "lat": 52.485871, "lon": -2.114385}, {"name": "White Bear", "type": "pub", "lat": 51.634092, "lon": -0.467117}, {"name": "Welshpool Lock", "type": "lock", "lat": 52.657997, "lon": -3.1457}, {"name": "Rising Sun", "type": "pub", "lat": 52.342582, "lon": -2.277295}, {"name": "Worley's At The Swan", "type": "pub", "lat": 52.340641, "lon": -2.278175}, {"name": "The Wheatsheaf", "type": "pub", "lat": 52.339805, "lon": -2.279754}, {"name": "Old Bush", "type": "pub", "lat": 52.513162, "lon": -2.202531}, {"name": "The Green Man", "type": "pub", "lat": 52.512549, "lon": -2.206058}, {"name": "The Ram", "type": "pub", "lat": 51.40812, "lon": -0.307699}, {"name": "The Anchor Inn", "type": "pub", "lat": 51.536499, "lon": -0.901157}, {"name": "Wharf Inn", "type": "pub", "lat": 52.268275, "lon": -2.256118}, {"name": "The Lenchford Inn", "type": "pub", "lat": 52.275954, "lon": -2.275153}, {"name": "50 Bushes Lock", "type": "lock", "lat": 51.767736, "lon": -0.582522}, {"name": "71 Shears Lock", "type": "lock", "lat": 53.500323, "lon": -2.190359}, {"name": "70 Pinfold Lock", "type": "lock", "lat": 53.500871, "lon": -2.187124}, {"name": "69 Newton Heath", "type": "lock", "lat": 53.501584, "lon": -2.18139}, {"name": "68 Tannersfield Lowest", "type": "lock", "lat": 53.503266, "lon": -2.171587}, {"name": "76 Slaters Lower", "type": "lock", "lat": 53.495105, "lon": -2.201966}, {"name": "75 Slaters Higher", "type": "lock", "lat": 53.496314, "lon": -2.199383}, {"name": "77 Anthony", "type": "lock", "lat": 53.492777, "lon": -2.206914}, {"name": "77 Anthony", "type": "lock", "lat": 53.492918, "lon": -2.206617}, {"name": "76 Slaters Lower", "type": "lock", "lat": 53.495252, "lon": -2.201651}, {"name": "74 Drunken Bridge", "type": "lock", "lat": 53.497861, "lon": -2.196091}, {"name": "74 Drunken Bridge", "type": "lock", "lat": 53.497714, "lon": -2.196402}, {"name": "73 Ten Acres", "type": "lock", "lat": 53.498587, "lon": -2.194542}, {"name": "73 Ten Acres", "type": "lock", "lat": 53.498721, "lon": -2.194253}, {"name": "72 Scothmans", "type": "lock", "lat": 53.499513, "lon": -2.192569}, {"name": "70 Pinfold Lock", "type": "lock", "lat": 53.500848, "lon": -2.187466}, {"name": "New Crown Inn", "type": "pub", "lat": 53.501353, "lon": -2.181106}, {"name": "Codnor Park and Ironville Crossings Club,", "type": "pub", "lat": 53.059709, "lon": -1.349369}, {"name": "Maryhill Top Lock 24", "type": "lock", "lat": 55.89331, "lon": -4.298849}, {"name": "Maryhill Top Lock 22", "type": "lock", "lat": 55.892938, "lon": -4.296919}, {"name": "The Mug House Inn", "type": "pub", "lat": 52.376987, "lon": -2.315413}, {"name": "The Dundas Arms", "type": "pub", "lat": 51.401989, "lon": -1.445934}, {"name": "The Lock Inn", "type": "pub", "lat": 52.410003, "lon": -2.249732}, {"name": "Wire Lock", "type": "lock", "lat": 51.410395, "lon": -1.479758}, {"name": "Wire Lock", "type": "lock", "lat": 51.410443, "lon": -1.480147}, {"name": "Dunn Mill", "type": "lock", "lat": 51.411707, "lon": -1.495878}, {"name": "Dunn Mill", "type": "lock", "lat": 51.41171, "lon": -1.496192}, {"name": "Montgomery's Tower", "type": "pub", "lat": 52.709254, "lon": -2.758733}, {"name": "The Moorings", "type": "pub", "lat": 53.709706, "lon": -1.903918}, {"name": "Cod and Lobster", "type": "pub", "lat": 54.558808, "lon": -0.790286}, {"name": "Royal George", "type": "pub", "lat": 54.55921, "lon": -0.791862}, {"name": "The Railway Inn", "type": "pub", "lat": 52.283701, "lon": -1.53204}, {"name": "The Black Swan", "type": "pub", "lat": 52.624925, "lon": -2.468585}, {"name": "The Embankment", "type": "pub", "lat": 52.135022, "lon": -0.460211}, {"name": "The Severn Bore", "type": "pub", "lat": 51.836233, "lon": -2.357429}, {"name": "The Vermuyden", "type": "pub", "lat": 53.696756, "lon": -0.873448}, {"name": "The Middle House", "type": "pub", "lat": 53.697057, "lon": -0.872949}, {"name": "Napton Water Point", "type": "water_point", "lat": 52.243125, "lon": -1.330887}, {"name": "Red Lion", "type": "pub", "lat": 52.331818, "lon": 0.338512}, {"name": "The Ship", "type": "pub", "lat": 52.331115, "lon": 0.339049}, {"name": "Lock 42", "type": "lock", "lat": 51.352426, "lon": -2.020144}, {"name": "Lock 43", "type": "lock", "lat": 51.352444, "lon": -2.019216}, {"name": "The Waterwitch", "type": "pub", "lat": 51.258877, "lon": -0.932357}, {"name": "Staircase Top Lock Gate", "type": "lock", "lat": 52.981024, "lon": -2.710923}, {"name": "Bromley Arms", "type": "pub", "lat": 53.051831, "lon": -0.902053}, {"name": "Godalming Wharf, Sanitary Station", "type": "sanitary", "lat": 51.187215, "lon": -0.604835}, {"name": "Grand Central", "type": "pub", "lat": 53.474081, "lon": -2.240831}, {"name": "Thai Village", "type": "pub", "lat": 54.691432, "lon": -1.198651}, {"name": "Deep Lock", "type": "lock", "lat": 53.312069, "lon": -1.143785}, {"name": "Haggonfields Lock no 42", "type": "lock", "lat": 53.315982, "lon": -1.151028}, {"name": "Stret Lock", "type": "lock", "lat": 53.311487, "lon": -1.141748}, {"name": "The Old Ship", "type": "pub", "lat": 51.729191, "lon": 0.709309}, {"name": "The Bull's Head", "type": "pub", "lat": 52.165366, "lon": -1.85452}, {"name": "Braunston North Water Point", "type": "water_point", "lat": 52.290233, "lon": -1.220803}, {"name": "Braunston North Elsan Point", "type": "sanitary", "lat": 52.290137, "lon": -1.220695}, {"name": "Hillmorton Water Point", "type": "water_point", "lat": 52.367708, "lon": -1.212811}, {"name": "The New Union", "type": "pub", "lat": 53.47629, "lon": -2.23847}, {"name": "The Church", "type": "pub", "lat": 53.477698, "lon": -2.236042}, {"name": "Newbold Water Point", "type": "water_point", "lat": 52.391723, "lon": -1.284333}, {"name": "Hillmorton Water Point", "type": "water_point", "lat": 52.367923, "lon": -1.213152}, {"name": "Cowley Lock Top Gate", "type": "lock", "lat": 51.529054, "lon": -0.485746}, {"name": "Cowley Lock Bottom Gate", "type": "lock", "lat": 51.528811, "lon": -0.4857}, {"name": "Lyceum Tavern", "type": "pub", "lat": 51.600197, "lon": -3.002066}, {"name": "The Swan", "type": "pub", "lat": 52.586914, "lon": -2.175983}, {"name": "35", "type": "lock", "lat": 52.295725, "lon": -1.632545}, {"name": "Crindau Constitutional Club", "type": "pub", "lat": 51.598476, "lon": -3.000528}, {"name": "The Amber Rooms", "type": "pub", "lat": 52.773739, "lon": -1.209374}, {"name": "Clitheroe Lock", "type": "lock", "lat": 51.488892, "lon": -0.321491}, {"name": "Horse & Jockey", "type": "pub", "lat": 52.543823, "lon": -2.087442}, {"name": "The Tumbledown Hotel And Albion Inn", "type": "pub", "lat": 52.712051, "lon": -2.750433}, {"name": "The Nelson", "type": "pub", "lat": 53.78264, "lon": -1.059337}, {"name": "The Broad Face", "type": "pub", "lat": 51.66935, "lon": -1.280106}, {"name": "Kings Head and Bell", "type": "pub", "lat": 51.669651, "lon": -1.281554}, {"name": "Crown & Thistle", "type": "pub", "lat": 51.669677, "lon": -1.280216}, {"name": "The Henry Addington", "type": "pub", "lat": 51.504306, "lon": -0.022567}, {"name": "Ivinghoe No.33", "type": "lock", "lat": 51.855289, "lon": -0.645627}, {"name": "St Andrews Bar", "type": "pub", "lat": 55.863814, "lon": -4.029787}, {"name": "Floods Tavern", "type": "pub", "lat": 52.324836, "lon": -0.076399}, {"name": "The Wheatsheaf Inn", "type": "pub", "lat": 50.850589, "lon": -1.232618}, {"name": "Nelson's Head", "type": "pub", "lat": 52.324036, "lon": -0.074977}, {"name": "The Crown", "type": "pub", "lat": 52.353813, "lon": 0.032478}, {"name": "The Beacon Way", "type": "pub", "lat": 52.625976, "lon": -1.989397}, {"name": "Brambridge Lock", "type": "lock", "lat": 51.001046, "lon": -1.334054}, {"name": "Cranfleet Flood Gates", "type": "lock", "lat": 52.875891, "lon": -1.26739}, {"name": "Sawley Locks", "type": "lock", "lat": 52.872563, "lon": -1.292207}, {"name": "The Jug Inn", "type": "pub", "lat": 53.729055, "lon": -1.121464}, {"name": "The Wellington", "type": "pub", "lat": 53.713799, "lon": -2.097034}, {"name": "The Bridge", "type": "pub", "lat": 53.611842, "lon": -2.607467}, {"name": "The Peacock", "type": "pub", "lat": 53.702512, "lon": -0.867952}, {"name": "Free Gardeners", "type": "pub", "lat": 53.769971, "lon": -2.411239}, {"name": "Bulborne Water Point", "type": "water_point", "lat": 51.813038, "lon": -0.647037}, {"name": "The Eagle & Spur", "type": "pub", "lat": 52.420627, "lon": -2.23225}, {"name": "Bulls Head", "type": "pub", "lat": 52.421143, "lon": -2.232666}, {"name": "Thorn Inn", "type": "pub", "lat": 53.757135, "lon": -2.393587}, {"name": "The Barge Inn", "type": "pub", "lat": 52.892331, "lon": -1.276591}, {"name": "Rishton Workmens Club", "type": "pub", "lat": 53.769231, "lon": -2.414742}, {"name": "Roebuck Inn", "type": "pub", "lat": 53.768272, "lon": -2.413884}, {"name": "Navigation Inn", "type": "pub", "lat": 52.818497, "lon": -3.019837}, {"name": "Railway Inn", "type": "pub", "lat": 52.27091, "lon": -2.153367}, {"name": "Engine Locks", "type": "lock", "lat": 53.059306, "lon": -2.150426}, {"name": "Mishka", "type": "pub", "lat": 54.001598, "lon": -0.433189}, {"name": "The Royal Oak", "type": "pub", "lat": 53.009014, "lon": -1.764112}, {"name": "The Bridge", "type": "pub", "lat": 52.220891, "lon": -2.13875}, {"name": "Feildes Lock Elsan Point", "type": "sanitary", "lat": 51.763369, "lon": 0.012833}, {"name": "Tolladine Lock", "type": "lock", "lat": 52.217202, "lon": -2.179502}, {"name": "London Bridge Inn", "type": "pub", "lat": 53.367226, "lon": -2.578915}, {"name": "Burton Bridge Inn", "type": "pub", "lat": 52.806773, "lon": -1.625431}, {"name": "The Boat Inn", "type": "pub", "lat": 52.554158, "lon": -0.132936}, {"name": "The Castle Inn", "type": "pub", "lat": 52.383669, "lon": -2.251855}, {"name": "Bradley Green Wharf Water Point", "type": "water_point", "lat": 52.59854, "lon": -1.5801}, {"name": "Gardham Lock", "type": "lock", "lat": 53.898932, "lon": -0.891212}, {"name": "Braunston East Water Point", "type": "water_point", "lat": 52.288386, "lon": -1.212248}, {"name": "The Mill", "type": "pub", "lat": 53.259065, "lon": -1.412478}, {"name": "Dixon's Lock", "type": "lock", "lat": 53.266952, "lon": -1.390637}, {"name": "Duke Of York", "type": "pub", "lat": 53.713591, "lon": -2.096463}, {"name": "Willington Water Point", "type": "water_point", "lat": 52.854668, "lon": -1.562727}, {"name": "The Star Inn", "type": "pub", "lat": 52.064254, "lon": -2.217076}, {"name": "The Kings Head", "type": "pub", "lat": 52.064644, "lon": -2.217291}, {"name": "Ye Olde Anchor Inn", "type": "pub", "lat": 52.064135, "lon": -2.217172}, {"name": "The Plough Inn", "type": "pub", "lat": 52.064703, "lon": -2.217864}, {"name": "Royal Oak", "type": "pub", "lat": 53.157982, "lon": -2.091228}, {"name": "Ashow Club", "type": "pub", "lat": 52.329679, "lon": -1.543994}, {"name": "The Mitre", "type": "pub", "lat": 51.994439, "lon": -0.992661}, {"name": "Wilsons Arms", "type": "pub", "lat": 53.679434, "lon": -1.711127}, {"name": "The Barton Arms", "type": "pub", "lat": 53.497417, "lon": -2.376894}, {"name": "The Rocket", "type": "pub", "lat": 51.465532, "lon": -0.213083}, {"name": "Zouch Lock", "type": "lock", "lat": 52.806407, "lon": -1.256515}, {"name": "Owd Nells", "type": "pub", "lat": 53.850373, "lon": -2.748242}, {"name": "Fenny Stratford Elsan Point", "type": "sanitary", "lat": 52.000278, "lon": -0.71432}, {"name": "Fenny Stratford Water Point", "type": "water_point", "lat": 52.000324, "lon": -0.714331}, {"name": "Cosgrove Services Water Point", "type": "water_point", "lat": 52.074638, "lon": -0.842262}, {"name": "Giffard Park Elsan Point", "type": "sanitary", "lat": 52.073464, "lon": -0.746935}, {"name": "Cosgrove Services Elsan Point", "type": "sanitary", "lat": 52.074653, "lon": -0.84226}, {"name": "Leighton Linslade Water Point", "type": "water_point", "lat": 51.916187, "lon": -0.670314}, {"name": "Stoke Bruerne Bottom Lock Water Point", "type": "water_point", "lat": 52.132678, "lon": -0.904429}, {"name": "Gayton Junction Water Point", "type": "water_point", "lat": 52.188792, "lon": -0.948514}, {"name": "Gayton Junction Elsan Point", "type": "sanitary", "lat": 52.18882, "lon": -0.948491}, {"name": "Spon Lane Middle Lock", "type": "lock", "lat": 52.50698, "lon": -1.999608}, {"name": "Cock & Magpie", "type": "pub", "lat": 52.376614, "lon": -2.314928}, {"name": "Lock 10", "type": "lock", "lat": 56.003159, "lon": -3.802605}, {"name": "Lock 10", "type": "lock", "lat": 56.003271, "lon": -3.802295}, {"name": "Lock 9", "type": "lock", "lat": 56.004183, "lon": -3.799977}, {"name": "Lock 8", "type": "lock", "lat": 56.004611, "lon": -3.798676}, {"name": "Lock 8", "type": "lock", "lat": 56.004679, "lon": -3.798328}, {"name": "Lock 7", "type": "lock", "lat": 56.005367, "lon": -3.796137}, {"name": "Lock 7", "type": "lock", "lat": 56.005445, "lon": -3.795792}, {"name": "Lock 6", "type": "lock", "lat": 56.007109, "lon": -3.790312}, {"name": "Lock 6", "type": "lock", "lat": 56.00728, "lon": -3.790111}, {"name": "Lock 5", "type": "lock", "lat": 56.010383, "lon": -3.786292}, {"name": "Lock 5", "type": "lock", "lat": 56.010489, "lon": -3.785979}, {"name": "The Riverside Vauxhall", "type": "pub", "lat": 51.485633, "lon": -0.127032}, {"name": "The Whittington Arms", "type": "pub", "lat": 51.676384, "lon": -3.772668}, {"name": "The Boatyard", "type": "pub", "lat": 52.534249, "lon": -2.415237}, {"name": "Black Horse", "type": "pub", "lat": 52.533972, "lon": -2.414731}, {"name": "Graham Palmer Lock", "type": "lock", "lat": 52.871715, "lon": -2.942517}, {"name": "Kings Norton stop lock", "type": "lock", "lat": 52.413193, "lon": -1.919527}, {"name": "The Old Rectifying House", "type": "pub", "lat": 52.191683, "lon": -2.225933}, {"name": "The Boathouse", "type": "pub", "lat": 53.577885, "lon": -2.718326}, {"name": "The Crocodile", "type": "pub", "lat": 51.702771, "lon": -0.04427}, {"name": "The Swan at Streatley", "type": "pub", "lat": 51.523495, "lon": -1.143784}, {"name": "The Volunteer Arms", "type": "pub", "lat": 53.699363, "lon": -1.869103}, {"name": "Bellini\u2019s", "type": "pub", "lat": 54.176822, "lon": -6.339719}, {"name": "The Beaufort", "type": "pub", "lat": 51.825174, "lon": -3.093541}, {"name": "The Wheatsheaf", "type": "pub", "lat": 52.199926, "lon": -2.238794}, {"name": "Rose of Lancaster", "type": "pub", "lat": 53.551888, "lon": -2.167778}, {"name": "Scowcroft Lock", "type": "lock", "lat": 53.555981, "lon": -2.17201}, {"name": "67 Tannersfield Middle", "type": "lock", "lat": 53.5038, "lon": -2.169124}, {"name": "68 Tannersfield Lowest", "type": "lock", "lat": 53.503315, "lon": -2.171225}, {"name": "67 Tannersfield Middle", "type": "lock", "lat": 53.503927, "lon": -2.168806}, {"name": "De Burgh Arms", "type": "pub", "lat": 51.510182, "lon": -0.473704}, {"name": "The Station", "type": "pub", "lat": 53.33698, "lon": -1.238821}, {"name": "Thorpe top treble lock no 20", "type": "lock", "lat": 53.329061, "lon": -1.201253}, {"name": "Thorpe top treble lock no 21", "type": "lock", "lat": 53.328859, "lon": -1.200594}, {"name": "Thorpe top treble lock no 22", "type": "lock", "lat": 53.328758, "lon": -1.200263}, {"name": "Thorpe middle lock no 23", "type": "lock", "lat": 53.328522, "lon": -1.199666}, {"name": "Thorpe middle lock no 23", "type": "lock", "lat": 53.328405, "lon": -1.199369}, {"name": "Thorpe bottom lock no 24", "type": "lock", "lat": 53.328206, "lon": -1.198763}, {"name": "Thorpe bottom lock no 24", "type": "lock", "lat": 53.328121, "lon": -1.198436}, {"name": "Lime house lock no 25", "type": "lock", "lat": 53.327987, "lon": -1.19739}, {"name": "Thorpe low treble no 26", "type": "lock", "lat": 53.32792, "lon": -1.195836}, {"name": "Thorpe low treble no 28", "type": "lock", "lat": 53.327889, "lon": -1.195132}, {"name": "Milestone lock no 29", "type": "lock", "lat": 53.327653, "lon": -1.193936}, {"name": "Bickyard double lock no 30", "type": "lock", "lat": 53.327316, "lon": -1.192493}, {"name": "Browns lock no 32", "type": "lock", "lat": 53.326912, "lon": -1.190975}, {"name": "Browns lock no 32", "type": "lock", "lat": 53.326822, "lon": -1.190652}, {"name": "Turnerwood double bottom lock no 33", "type": "lock", "lat": 53.326783, "lon": -1.187745}, {"name": "Brickyard double lock no 31", "type": "lock", "lat": 53.327143, "lon": -1.191844}, {"name": "Thorpe low treble no 27", "type": "lock", "lat": 53.327904, "lon": -1.195488}, {"name": "Milestone lock no 29", "type": "lock", "lat": 53.327576, "lon": -1.193606}, {"name": "Turnerwood double bottom lock no 34", "type": "lock", "lat": 53.326489, "lon": -1.187232}, {"name": "Quarry lock no 35", "type": "lock", "lat": 53.326144, "lon": -1.186188}, {"name": "Quarry lock no 35", "type": "lock", "lat": 53.326093, "lon": -1.185842}, {"name": "Turnerwood top lock no 36", "type": "lock", "lat": 53.325979, "lon": -1.18495}, {"name": "Turnerwood top lock no 36", "type": "lock", "lat": 53.325933, "lon": -1.184605}, {"name": "Turnerwood bottom lock no 37", "type": "lock", "lat": 53.32586, "lon": -1.183574}, {"name": "Turnerwood bottom lock no 37", "type": "lock", "lat": 53.325885, "lon": -1.183239}, {"name": "Feeder lock no 38", "type": "lock", "lat": 53.325982, "lon": -1.182191}, {"name": "Feeder lock no 38", "type": "lock", "lat": 53.325972, "lon": -1.181836}, {"name": "Stone lock no 39", "type": "lock", "lat": 53.325888, "lon": -1.180734}, {"name": "Stone lock no 39", "type": "lock", "lat": 53.325858, "lon": -1.180383}, {"name": "Oneslide lock no 40", "type": "lock", "lat": 53.325693, "lon": -1.178191}, {"name": "Cinderhill lock no 41", "type": "lock", "lat": 53.325574, "lon": -1.176955}, {"name": "Boundary lock num 41a", "type": "lock", "lat": 53.325074, "lon": -1.174857}, {"name": "Boundary lock num 41a", "type": "lock", "lat": 53.324966, "lon": -1.174551}, {"name": "Shireoaks Top Lock no 42", "type": "lock", "lat": 53.322001, "lon": -1.165584}, {"name": "Shireoaks Middle lock 43", "type": "lock", "lat": 53.321171, "lon": -1.164996}, {"name": "Shireoaks Bottom Lock 44", "type": "lock", "lat": 53.320483, "lon": -1.164242}, {"name": "Doefield Dun Lock no 45", "type": "lock", "lat": 53.31671, "lon": -1.156043}, {"name": "Deep Lock no 47", "type": "lock", "lat": 53.312165, "lon": -1.144118}, {"name": "Stret Lock no 48", "type": "lock", "lat": 53.311577, "lon": -1.142066}, {"name": "Frankton Middle Lock (3)", "type": "lock", "lat": 52.878091, "lon": -2.938916}, {"name": "Frankton Bottom Lock (4)", "type": "lock", "lat": 52.877111, "lon": -2.939693}, {"name": "Frankton Top Lock (Staircase 1)", "type": "lock", "lat": 52.879518, "lon": -2.937724}, {"name": "Frankton Top Lock (Staircase)", "type": "lock", "lat": 52.87931, "lon": -2.937971}, {"name": "Oldbury 5th Lock", "type": "lock", "lat": 52.496583, "lon": -2.009283}, {"name": "Oldbury Bottom Lock", "type": "lock", "lat": 52.499837, "lon": -2.009625}, {"name": "Elephant and Castle", "type": "pub", "lat": 53.505702, "lon": -1.40603}, {"name": "Town Lock", "type": "lock", "lat": 53.997849, "lon": -0.428614}, {"name": "Traders Tavern", "type": "pub", "lat": 51.479762, "lon": -3.172347}, {"name": "Castle Barge", "type": "pub", "lat": 53.078957, "lon": -0.811736}, {"name": "Brithdir Lock", "type": "lock", "lat": 52.612985, "lon": -3.182834}, {"name": "Welches Dam Lock", "type": "lock", "lat": 52.450669, "lon": 0.161578}, {"name": "The Waterfront", "type": "pub", "lat": 51.464527, "lon": -0.185688}, {"name": "The Rendezvous Bar", "type": "pub", "lat": 53.451573, "lon": -2.731503}, {"name": "Toppos Wine Bar", "type": "pub", "lat": 53.643772, "lon": -2.094927}, {"name": "Wheatsheaf", "type": "pub", "lat": 53.643634, "lon": -2.095814}, {"name": "Cask", "type": "pub", "lat": 53.475919, "lon": -2.252357}, {"name": "Cardiff Arms", "type": "pub", "lat": 51.481635, "lon": -3.172282}, {"name": "Canal Inn", "type": "pub", "lat": 53.067677, "lon": -1.468021}, {"name": "Ponsonby Arms", "type": "pub", "lat": 52.970746, "lon": -3.167593}, {"name": "Th'Owd Tithe Barn", "type": "pub", "lat": 53.898454, "lon": -2.777941}, {"name": "The Royal Lion", "type": "pub", "lat": 50.724753, "lon": -2.9343}, {"name": "The Crown Inn", "type": "pub", "lat": 51.6784, "lon": -3.024871}, {"name": "Yates", "type": "pub", "lat": 51.483252, "lon": -3.176093}, {"name": "Whinhill Lock", "type": "lock", "lat": 53.996788, "lon": -0.398176}, {"name": "Whinhill Lock", "type": "lock", "lat": 53.99695, "lon": -0.398533}, {"name": "Flood Barrier", "type": "lock", "lat": 52.236566, "lon": -0.842221}, {"name": "Flood Barrier", "type": "lock", "lat": 52.231934, "lon": -0.858547}, {"name": "Barley Twist", "type": "pub", "lat": 52.948305, "lon": -1.147576}, {"name": "Lock 12", "type": "lock", "lat": 56.001838, "lon": -3.805238}, {"name": "Lock 14", "type": "lock", "lat": 56.000876, "lon": -3.810438}, {"name": "Lock 13", "type": "lock", "lat": 56.001281, "lon": -3.806611}, {"name": "Lock 16", "type": "lock", "lat": 55.999967, "lon": -3.81587}, {"name": "The Molly House", "type": "pub", "lat": 53.477322, "lon": -2.237098}, {"name": "New York New York", "type": "pub", "lat": 53.47686, "lon": -2.23855}, {"name": "The Eagle", "type": "pub", "lat": 53.477688, "lon": -2.236868}, {"name": "EVA", "type": "pub", "lat": 53.477282, "lon": -2.237508}, {"name": "Zouch Lock", "type": "lock", "lat": 52.806447, "lon": -1.256004}, {"name": "The Falcon", "type": "pub", "lat": 52.209861, "lon": -0.511336}, {"name": "The White Hart", "type": "pub", "lat": 51.813815, "lon": -2.438903}, {"name": "Temple Lock No. 27", "type": "lock", "lat": 55.895236, "lon": -4.32021}, {"name": "O'Shea's", "type": "pub", "lat": 53.47551, "lon": -2.238122}, {"name": "The Coracle", "type": "pub", "lat": 52.6277, "lon": -2.483653}, {"name": "Soar Bridge Inn", "type": "pub", "lat": 52.7503, "lon": -1.152107}, {"name": "Bridge Lock", "type": "lock", "lat": 53.193177, "lon": -2.89969}, {"name": "Bridge Lock", "type": "lock", "lat": 53.193411, "lon": -2.899733}, {"name": "Dee Lock", "type": "lock", "lat": 53.192494, "lon": -2.902371}, {"name": "Navigation Inn", "type": "pub", "lat": 52.745969, "lon": -1.147148}, {"name": "Upper Maunsel Lock", "type": "lock", "lat": 51.059283, "lon": -2.988899}, {"name": "Frankton Bottom Lock (4)", "type": "lock", "lat": 52.877307, "lon": -2.939502}, {"name": "Sun Dial Inn", "type": "pub", "lat": 54.119417, "lon": -2.537042}, {"name": "White Hart", "type": "pub", "lat": 53.427882, "lon": -2.095374}, {"name": "Old Ford Lock Water Point", "type": "water_point", "lat": 51.538023, "lon": -0.020693}, {"name": "Standards Lock", "type": "lock", "lat": 51.080736, "lon": -2.97718}, {"name": "Kings Lock", "type": "lock", "lat": 51.077196, "lon": -2.993076}, {"name": "Lower Maunsel Lock", "type": "lock", "lat": 51.062817, "lon": -2.989024}, {"name": "The Galleon", "type": "pub", "lat": 52.064679, "lon": -0.826166}, {"name": "The Malt Shovel", "type": "pub", "lat": 51.529741, "lon": -0.485607}, {"name": "Waters Edge", "type": "pub", "lat": 51.519965, "lon": -0.483088}, {"name": "Spon Lane Top Lock", "type": "lock", "lat": 52.506701, "lon": -1.995337}, {"name": "The Star Inn", "type": "pub", "lat": 51.724945, "lon": -3.007648}, {"name": "Ryder's Green Lock 5", "type": "lock", "lat": 52.526778, "lon": -2.027017}, {"name": "Ryder's Green Lock 6", "type": "lock", "lat": 52.527654, "lon": -2.028091}, {"name": "Ryder's Green Lock 7 (Bottom)", "type": "lock", "lat": 52.528912, "lon": -2.02964}, {"name": "Bridge End", "type": "pub", "lat": 52.971503, "lon": -3.169866}, {"name": "The Woodpecker Inn", "type": "pub", "lat": 53.706716, "lon": -2.104723}, {"name": "Three Horse Shoes", "type": "pub", "lat": 53.542229, "lon": -0.741096}, {"name": "Ferryboat Inn", "type": "pub", "lat": 53.54135, "lon": -0.741213}, {"name": "Sharpness Dockers Club", "type": "pub", "lat": 51.724108, "lon": -2.477004}, {"name": "The J. P. Joule", "type": "pub", "lat": 53.424111, "lon": -2.317537}, {"name": "The Steamhouse", "type": "pub", "lat": 53.424502, "lon": -2.318024}, {"name": "Rendevous", "type": "pub", "lat": 50.607618, "lon": -2.455148}, {"name": "Ryder's Green Lock 2", "type": "lock", "lat": 52.524146, "lon": -2.023779}, {"name": "Ryder's Green Lock 3", "type": "lock", "lat": 52.525016, "lon": -2.024843}, {"name": "Ryder's Green Lock 4", "type": "lock", "lat": 52.525897, "lon": -2.02592}, {"name": "Ryder's Green Lock 8", "type": "lock", "lat": 52.531786, "lon": -2.033155}, {"name": "The Rose and Crown", "type": "pub", "lat": 51.059851, "lon": -1.797541}, {"name": "Ryder's Green Lock 1 (Top)", "type": "lock", "lat": 52.523237, "lon": -2.022648}, {"name": "Ryder's Green Lock 1 (Top)", "type": "lock", "lat": 52.523434, "lon": -2.022891}, {"name": "Apple Tree", "type": "pub", "lat": 52.53976, "lon": -2.086969}, {"name": "The Royal", "type": "pub", "lat": 52.540859, "lon": -2.088235}, {"name": "The Chainyards", "type": "pub", "lat": 52.542189, "lon": -2.087717}, {"name": "The Swan", "type": "pub", "lat": 53.229095, "lon": -0.548331}, {"name": "Drungewick lock No. 3", "type": "lock", "lat": 51.064733, "lon": -0.480368}, {"name": "Drungewick lock No. 3", "type": "lock", "lat": 51.064913, "lon": -0.480166}, {"name": "The Ship Inn", "type": "pub", "lat": 52.444406, "lon": -2.36957}, {"name": "Southland Lock, No. 7", "type": "lock", "lat": 51.076195, "lon": -0.531618}, {"name": "Southland Lock, No.7", "type": "lock", "lat": 51.07592, "lon": -0.531479}, {"name": "The Bridge", "type": "pub", "lat": 53.641737, "lon": -1.795204}, {"name": "Rowner Lock No. 1", "type": "lock", "lat": 51.03335, "lon": -0.476101}, {"name": "Rowner Lock No. 1", "type": "lock", "lat": 51.033605, "lon": -0.476089}, {"name": "Orfold Flood Lock", "type": "lock", "lat": 51.009982, "lon": -0.496742}, {"name": "The Sports Bar", "type": "pub", "lat": 51.378032, "lon": -2.356713}, {"name": "The Organ", "type": "pub", "lat": 53.482289, "lon": -2.051394}, {"name": "Floodgate", "type": "lock", "lat": 53.673662, "lon": -1.491419}, {"name": "Huddersfield Narrow Canal Lock 17W", "type": "lock", "lat": 53.52868, "lon": -2.029863}, {"name": "Huddersfield Narrow Canal Lock 17W", "type": "lock", "lat": 53.528897, "lon": -2.029923}, {"name": "Oldbury Top Lock", "type": "lock", "lat": 52.495894, "lon": -2.009196}, {"name": "Oldbury 2nd Lock", "type": "lock", "lat": 52.498728, "lon": -2.009502}, {"name": "Oldbury 4th Lock", "type": "lock", "lat": 52.497245, "lon": -2.009366}, {"name": "Oldbury Bottom Lock", "type": "lock", "lat": 52.499618, "lon": -2.009604}, {"name": "Oldbury 3rd Lock", "type": "lock", "lat": 52.497867, "lon": -2.009405}, {"name": "Oldbury Top Lock", "type": "lock", "lat": 52.496115, "lon": -2.00922}, {"name": "Huddersfield Narrow Canal Lock 30W", "type": "lock", "lat": 53.561622, "lon": -1.998071}, {"name": "Huddersfield Narrow Canal Lock 31W", "type": "lock", "lat": 53.56491, "lon": -1.996955}, {"name": "Huddersfield Narrow Canal Lock 26W", "type": "lock", "lat": 53.557622, "lon": -2.002751}, {"name": "Huddersfield Narrow Canal Lock 28W", "type": "lock", "lat": 53.559332, "lon": -1.999971}, {"name": "Huddersfield Narrow Canal Lock 27W", "type": "lock", "lat": 53.558549, "lon": -2.000967}, {"name": "Huddersfield Narrow Canal Lock 26W", "type": "lock", "lat": 53.557512, "lon": -2.003042}, {"name": "Huddersfield Narrow Canal Lock 29W", "type": "lock", "lat": 53.560423, "lon": -1.99884}, {"name": "Huddersfield Narrow Canal Lock 25W", "type": "lock", "lat": 53.557133, "lon": -2.004105}, {"name": "Huddersfield Narrow Canal Lock 27W", "type": "lock", "lat": 53.558388, "lon": -2.001229}, {"name": "51 Gas 1 Lcok", "type": "lock", "lat": 51.765435, "lon": -0.573412}, {"name": "The Wheatsheaf (Closed)", "type": "pub", "lat": 52.233491, "lon": -1.077152}, {"name": "Braunston Water Point", "type": "water_point", "lat": 52.288784, "lon": -1.21518}, {"name": "Masons Arms", "type": "pub", "lat": 53.954069, "lon": -1.077356}, {"name": "The Postern Gate", "type": "pub", "lat": 53.95455, "lon": -1.077225}, {"name": "Clifton Arms", "type": "pub", "lat": 53.73991, "lon": -2.479233}, {"name": "The Vine", "type": "pub", "lat": 52.449115, "lon": -2.223967}, {"name": "The Temple", "type": "pub", "lat": 53.475573, "lon": -2.242268}, {"name": "The Minders Arms", "type": "pub", "lat": 53.543918, "lon": -2.171526}, {"name": "Bosley Top Lock Water Point", "type": "water_point", "lat": 53.200284, "lon": -2.143268}, {"name": "Turners Green Water Point", "type": "water_point", "lat": 52.325765, "lon": -1.718059}, {"name": "Hatton Top Lock Water Point", "type": "water_point", "lat": 52.299065, "lon": -1.651285}, {"name": "Cape Bottom Lock Water Point", "type": "water_point", "lat": 52.292479, "lon": -1.591196}, {"name": "Stockton Water Point", "type": "water_point", "lat": 52.278903, "lon": -1.376722}, {"name": "Calcutt Water Point", "type": "water_point", "lat": 52.2663, "lon": -1.315456}, {"name": "The Navigation", "type": "pub", "lat": 53.42636, "lon": -2.097646}, {"name": "Kirklees Low Lock", "type": "lock", "lat": 53.690217, "lon": -1.741367}, {"name": "Salterhebble Bottom Lock", "type": "lock", "lat": 53.697241, "lon": -1.856342}, {"name": "Long Lees Lock", "type": "lock", "lat": 53.693072, "lon": -1.850892}, {"name": "Park Nook Lock", "type": "lock", "lat": 53.695721, "lon": -1.829954}, {"name": "Elland Lock", "type": "lock", "lat": 53.69341, "lon": -1.833501}, {"name": "Salterhebble Top Lock", "type": "lock", "lat": 53.698318, "lon": -1.857284}, {"name": "Woodside Mills Lock", "type": "lock", "lat": 53.688261, "lon": -1.847946}, {"name": "The White Bull", "type": "pub", "lat": 53.851945, "lon": -2.745951}, {"name": "Stretton Arm Junction Water Point", "type": "water_point", "lat": 52.422804, "lon": -1.356234}, {"name": "Castlefield Elsan Point", "type": "sanitary", "lat": 53.474614, "lon": -2.258254}, {"name": "66 Tannersfield Highest", "type": "lock", "lat": 53.505023, "lon": -2.166557}, {"name": "66 Tannersfield Highest", "type": "lock", "lat": 53.505172, "lon": -2.166254}, {"name": "Crown And Anchor", "type": "pub", "lat": 53.761531, "lon": -0.702968}, {"name": "The Swan Inn", "type": "pub", "lat": 51.261831, "lon": -1.79789}, {"name": "Fazeley Junction Water Point", "type": "water_point", "lat": 52.616278, "lon": -1.703321}, {"name": "The Magpie", "type": "pub", "lat": 51.405696, "lon": -0.40777}, {"name": "Frankton Middle Lock (3)", "type": "lock", "lat": 52.878331, "lon": -2.938796}, {"name": "Temple Lock No. 27", "type": "lock", "lat": 55.895331, "lon": -4.320515}, {"name": "Graham Palmer Lock", "type": "lock", "lat": 52.871962, "lon": -2.942452}, {"name": "BrewDog", "type": "pub", "lat": 51.504644, "lon": -0.014697}, {"name": "Hawkesbury Junction Water Point", "type": "water_point", "lat": 52.458312, "lon": -1.468235}, {"name": "Hawkesbury Junction Water Point", "type": "water_point", "lat": 52.458623, "lon": -1.46765}, {"name": "Ryder's Green Lock 8", "type": "lock", "lat": 52.531984, "lon": -2.033391}, {"name": "Ryder's Green Lock 4", "type": "lock", "lat": 52.526087, "lon": -2.026155}, {"name": "Ryder's Green Lock 3", "type": "lock", "lat": 52.525205, "lon": -2.025077}, {"name": "Ryder's Green Lock 6", "type": "lock", "lat": 52.527837, "lon": -2.028317}, {"name": "Ryder's Green Lock 5", "type": "lock", "lat": 52.526959, "lon": -2.02724}, {"name": "Ryder's Green Lock 7 (Bottom)", "type": "lock", "lat": 52.529089, "lon": -2.029855}, {"name": "Ryder's Green Lock 2", "type": "lock", "lat": 52.524342, "lon": -2.024022}, {"name": "The Green Dragon", "type": "pub", "lat": 51.703989, "lon": -0.048064}, {"name": "Sun Inn", "type": "pub", "lat": 53.265971, "lon": -0.658687}, {"name": "Spellbrook Lock 3", "type": "lock", "lat": 51.836855, "lon": 0.161574}, {"name": "The Midnight Bell", "type": "pub", "lat": 53.791703, "lon": -1.55179}, {"name": "The Cross Keys", "type": "pub", "lat": 53.791695, "lon": -1.552573}, {"name": "The Hop", "type": "pub", "lat": 53.793686, "lon": -1.549197}, {"name": "Waterman's Arms", "type": "pub", "lat": 51.459377, "lon": -0.307132}, {"name": "Kings Lock", "type": "lock", "lat": 53.186993, "lon": -2.440558}, {"name": "Darran", "type": "pub", "lat": 51.615891, "lon": -3.106863}, {"name": "Islington Townhouse", "type": "pub", "lat": 51.533714, "lon": -0.106972}, {"name": "Gailey Water Point", "type": "water_point", "lat": 52.690988, "lon": -2.119827}, {"name": "The Bridge House", "type": "pub", "lat": 51.521028, "lon": -0.184213}, {"name": "The Bear", "type": "pub", "lat": 52.190736, "lon": -1.699599}, {"name": "Shepherds Rest", "type": "pub", "lat": 53.711309, "lon": -1.900232}, {"name": "Sore Bee", "type": "pub", "lat": 53.709931, "lon": -1.905231}, {"name": "Crate Brewery & Pizza", "type": "pub", "lat": 51.542997, "lon": -0.022079}, {"name": "Lock 42", "type": "pub", "lat": 52.641064, "lon": -1.143386}, {"name": "The Anchor", "type": "pub", "lat": 51.995256, "lon": -2.156609}, {"name": "Ash Tree Water Point", "type": "water_point", "lat": 52.745579, "lon": -1.908002}, {"name": "Corraquill Lock", "type": "lock", "lat": 54.130803, "lon": -7.520531}, {"name": "Ferry Boat Inn", "type": "pub", "lat": 52.972353, "lon": -1.037581}, {"name": "Four Horseshoes", "type": "pub", "lat": 53.6389, "lon": -1.824807}, {"name": "Snowys Bar", "type": "pub", "lat": 53.641935, "lon": -1.795378}, {"name": "Boatman", "type": "pub", "lat": 51.486472, "lon": -0.606187}, {"name": "Marsden Water Point", "type": "water_point", "lat": 53.603876, "lon": -1.94163}, {"name": "Fazeley Victory", "type": "pub", "lat": 52.614343, "lon": -1.699204}, {"name": "Mile End Water Point", "type": "water_point", "lat": 51.52784, "lon": -0.040072}, {"name": "Old Oak Tree", "type": "pub", "lat": 51.49518, "lon": -0.387922}, {"name": "The Brendon Arms", "type": "pub", "lat": 50.826697, "lon": -4.547851}, {"name": "Little Baddow Lock", "type": "lock", "lat": 51.746499, "lon": 0.547043}, {"name": "Fazeley Junction Water Point", "type": "water_point", "lat": 52.615589, "lon": -1.701732}, {"name": "Brewdog Paddington", "type": "pub", "lat": 51.519054, "lon": -0.170564}, {"name": "Oldbury 3rd Lock", "type": "lock", "lat": 52.498088, "lon": -2.009428}, {"name": "Lock 77 Iron Bridge", "type": "lock", "lat": 51.664503, "lon": -0.426816}, {"name": "Little Venice Boater Facilities", "type": "sanitary", "lat": 51.521374, "lon": -0.184503}, {"name": "Yardley Wood Water Point", "type": "water_point", "lat": 52.416162, "lon": -1.872138}, {"name": "Gas Street Basin Water Point", "type": "water_point", "lat": 52.475012, "lon": -1.90809}, {"name": "Spon Lane Top Lock", "type": "lock", "lat": 52.506727, "lon": -1.99563}, {"name": "Spon Lane Middle Lock", "type": "lock", "lat": 52.506956, "lon": -1.99918}, {"name": "Spon Lane Bottom Lock", "type": "lock", "lat": 52.507106, "lon": -2.00427}, {"name": "Oldbury 5th Lock", "type": "lock", "lat": 52.496807, "lon": -2.009314}, {"name": "Brades Hall Upper Staircase Lock", "type": "lock", "lat": 52.510959, "lon": -2.033116}, {"name": "Brades Hall Upper Staircase Lock", "type": "lock", "lat": 52.511167, "lon": -2.032976}, {"name": "Brades Hall Upper Staircase Lock", "type": "lock", "lat": 52.511372, "lon": -2.032844}, {"name": "Brades Hall Bottom Lock", "type": "lock", "lat": 52.512632, "lon": -2.031958}, {"name": "Brades Hall Bottom Lock", "type": "lock", "lat": 52.512838, "lon": -2.031808}, {"name": "Anchor Pit Flood Lock", "type": "lock", "lat": 53.692399, "lon": -1.760018}, {"name": "Thornhill Flood Lock", "type": "lock", "lat": 53.67862, "lon": -1.652182}, {"name": "Cooper Bridge Flood Gate", "type": "lock", "lat": 53.683114, "lon": -1.735903}, {"name": "Springwood Haven Marina Water Point", "type": "water_point", "lat": 52.540663, "lon": -1.494641}, {"name": "Foxton Top Lock Water Point", "type": "water_point", "lat": 52.497853, "lon": -0.983408}, {"name": "Foxton Top Lock Water Point", "type": "water_point", "lat": 52.498208, "lon": -0.983346}, {"name": "The Spotted Cow", "type": "pub", "lat": 50.811358, "lon": -0.776492}, {"name": "Warwick Cavern", "type": "pub", "lat": 52.292546, "lon": -1.597072}, {"name": "The Thompsons Arms", "type": "pub", "lat": 53.477659, "lon": -2.238022}, {"name": "Brewer's Fayre", "type": "pub", "lat": 52.585834, "lon": -1.987264}, {"name": "Carreghofa Bottom Lock", "type": "lock", "lat": 52.77441, "lon": -3.107722}, {"name": "Carreghofa Bottom Lock", "type": "lock", "lat": 52.77459, "lon": -3.107449}, {"name": "Carreghofa Top Lock", "type": "lock", "lat": 52.77491, "lon": -3.106585}, {"name": "The Brewery Tap", "type": "pub", "lat": 53.381316, "lon": -2.478952}, {"name": "Piccadilly Central", "type": "pub", "lat": 53.477431, "lon": -2.232211}, {"name": "Foleshill Gas Club", "type": "pub", "lat": 52.442204, "lon": -1.48938}, {"name": "The Longford Engine", "type": "pub", "lat": 52.453325, "lon": -1.485206}, {"name": "The Fox", "type": "pub", "lat": 53.834788, "lon": -1.77409}, {"name": "Tafarn y Bont", "type": "pub", "lat": 51.818443, "lon": -3.067743}, {"name": "Inter-Basin Lock", "type": "lock", "lat": 51.133092, "lon": -3.004702}, {"name": "Royal Oak", "type": "pub", "lat": 53.563589, "lon": -2.329812}, {"name": "The Lord Raglan", "type": "pub", "lat": 53.563102, "lon": -2.328819}, {"name": "The Gazebo", "type": "pub", "lat": 51.410022, "lon": -0.30829}, {"name": "Foxton Junction Water Point", "type": "water_point", "lat": 52.501586, "lon": -0.98222}, {"name": "Barrow Mill Basin Elsan Point", "type": "sanitary", "lat": 52.745589, "lon": -1.14695}, {"name": "Barrow Mill Basin Water Point", "type": "water_point", "lat": 52.745608, "lon": -1.146894}, {"name": "Delph Band Club", "type": "pub", "lat": 53.568062, "lon": -2.02319}, {"name": "Grove Road Water Point", "type": "water_point", "lat": 53.495668, "lon": -2.039148}, {"name": "Spread Eagle", "type": "pub", "lat": 53.411096, "lon": -2.099372}, {"name": "The Blind Pig", "type": "pub", "lat": 53.709071, "lon": -1.910621}, {"name": "The Deansgate", "type": "pub", "lat": 53.475099, "lon": -2.251228}, {"name": "The Swan Hotel", "type": "pub", "lat": 51.726264, "lon": -2.531107}, {"name": "Braunston Elsan Point", "type": "sanitary", "lat": 52.28879, "lon": -1.215212}, {"name": "Watford Bottom Lock Water Point", "type": "water_point", "lat": 52.312052, "lon": -1.130815}, {"name": "Glascote Water Point", "type": "water_point", "lat": 52.626974, "lon": -1.681051}, {"name": "Fradley Junction Water Point", "type": "water_point", "lat": 52.722832, "lon": -1.791867}, {"name": "Fradley Junction Water Point", "type": "water_point", "lat": 52.72301, "lon": -1.792182}, {"name": "Wool Road Water Point", "type": "water_point", "lat": 53.556082, "lon": -2.008127}, {"name": "Wool Road Elsan Point", "type": "sanitary", "lat": 53.55613, "lon": -2.008099}, {"name": "Wool Road Pump Out Point", "type": "sanitary", "lat": 53.556102, "lon": -2.008121}, {"name": "Huddersfield Narrow Canal Lock 25W", "type": "lock", "lat": 53.557017, "lon": -2.004397}, {"name": "Huddersfield Narrow Canal Lock 32W", "type": "lock", "lat": 53.565705, "lon": -1.996396}, {"name": "Great Haywood Junction Water Point", "type": "water_point", "lat": 52.80454, "lon": -2.008949}, {"name": "Great Haywood Junction Water Point", "type": "water_point", "lat": 52.804634, "lon": -2.00894}, {"name": "Slaithwaite Elsan Point", "type": "sanitary", "lat": 53.623274, "lon": -1.878803}, {"name": "Slaithwaite Water Point", "type": "water_point", "lat": 53.623598, "lon": -1.875785}, {"name": "Stoke Bruerne Water Point", "type": "water_point", "lat": 52.142363, "lon": -0.915322}, {"name": "Stoke Bruerne Bottom Lock Elsan Point", "type": "sanitary", "lat": 52.132921, "lon": -0.904933}, {"name": "East Marton Water Point", "type": "water_point", "lat": 53.954971, "lon": -2.138302}, {"name": "Thurston", "type": "pub", "lat": 52.503491, "lon": -1.872121}, {"name": "Hall Green Water Point", "type": "water_point", "lat": 53.103426, "lon": -2.248615}, {"name": "Buglawton Water Point", "type": "water_point", "lat": 53.172153, "lon": -2.184941}, {"name": "Locketts Bridge Water Point", "type": "water_point", "lat": 53.201896, "lon": -2.141842}, {"name": "Brownhills Bridge Water Point", "type": "water_point", "lat": 53.346042, "lon": -2.084072}, {"name": "Consall Forge Water Point", "type": "water_point", "lat": 53.040566, "lon": -2.002711}, {"name": "Hope and Anchor PH Water Point", "type": "water_point", "lat": 52.697083, "lon": -1.099897}, {"name": "Castleford Water Point", "type": "water_point", "lat": 53.734917, "lon": -1.345483}, {"name": "Pollington Water Point", "type": "water_point", "lat": 53.665638, "lon": -1.067407}, {"name": "The Grapes", "type": "pub", "lat": 52.662997, "lon": -3.138566}, {"name": "The Waterway", "type": "pub", "lat": 51.522666, "lon": -0.187799}, {"name": "Abbey's Bar", "type": "pub", "lat": 54.689989, "lon": -1.198441}, {"name": "Common Room", "type": "pub", "lat": 55.940715, "lon": -3.215645}, {"name": "Railway Arms", "type": "pub", "lat": 51.509657, "lon": -0.473955}, {"name": "The Viking", "type": "pub", "lat": 55.886845, "lon": -4.284386}, {"name": "Cranfleet Lock Water Point", "type": "water_point", "lat": 52.879232, "lon": -1.256363}, {"name": "The Waterfront Inn", "type": "pub", "lat": 53.443057, "lon": -0.81986}, {"name": "Piccadilly Tap", "type": "pub", "lat": 53.478466, "lon": -2.231802}, {"name": "The Woolpack", "type": "pub", "lat": 51.998132, "lon": -0.987858}, {"name": "The Laich", "type": "pub", "lat": 55.932001, "lon": -3.249376}, {"name": "The Steam Packet", "type": "pub", "lat": 51.487403, "lon": -0.284704}, {"name": "Munn's", "type": "pub", "lat": 55.88069, "lon": -4.273901}, {"name": "Star of the East", "type": "pub", "lat": 51.51222, "lon": -0.028754}, {"name": "Boathouse", "type": "pub", "lat": 51.222471, "lon": 0.418747}, {"name": "Brynderwen Lock Gate", "type": "lock", "lat": 52.550699, "lon": -3.235915}, {"name": "Brynderwen Lock Gate", "type": "lock", "lat": 52.550428, "lon": -3.236165}, {"name": "Byles Lock", "type": "lock", "lat": 52.542519, "lon": -3.246685}, {"name": "Byles Lock", "type": "lock", "lat": 52.542453, "lon": -3.247015}, {"name": "Berriew Lock", "type": "lock", "lat": 52.603114, "lon": -3.192442}, {"name": "Berriew Lock", "type": "lock", "lat": 52.60341, "lon": -3.192256}, {"name": "Brithdir Lock", "type": "lock", "lat": 52.61285, "lon": -3.183233}, {"name": "Belan Top Lock", "type": "lock", "lat": 52.638869, "lon": -3.16085}, {"name": "Belan Bottom Lock", "type": "lock", "lat": 52.639593, "lon": -3.159532}, {"name": "Welshpool Lock", "type": "lock", "lat": 52.657801, "lon": -3.145907}, {"name": "Pump Out", "type": "sanitary", "lat": 51.387841, "lon": -0.427004}, {"name": "Cossington Lock", "type": "lock", "lat": 52.710317, "lon": -1.120937}, {"name": "Sileby Lock (49)", "type": "lock", "lat": 52.726968, "lon": -1.123736}, {"name": "Barrow Deep Lock", "type": "lock", "lat": 52.749764, "lon": -1.152502}, {"name": "Black Horse Water Point", "type": "water_point", "lat": 51.547812, "lon": -0.344702}, {"name": "Stop Lock", "type": "lock", "lat": 52.498098, "lon": -0.982448}, {"name": "Hawkesbury Junction Water Point", "type": "water_point", "lat": 52.458779, "lon": -1.467367}, {"name": "The Westwood Park", "type": "pub", "lat": 52.66126, "lon": -3.144465}, {"name": "Skipton Working Men's Club", "type": "pub", "lat": 53.959141, "lon": -2.017741}, {"name": "McCleave's Lock", "type": "lock", "lat": 54.553337, "lon": -5.945108}, {"name": "George Hotel", "type": "pub", "lat": 52.375788, "lon": -2.315552}, {"name": "Dr Foster's", "type": "pub", "lat": 51.863548, "lon": -2.251259}, {"name": "Open Hearth", "type": "pub", "lat": 51.681678, "lon": -3.023302}, {"name": "Actons Lock Elsan Point", "type": "sanitary", "lat": 51.535528, "lon": -0.064111}, {"name": "Bothy Bar", "type": "pub", "lat": 56.76555, "lon": -3.848572}, {"name": "Beer House", "type": "pub", "lat": 51.516782, "lon": -0.176452}, {"name": "Swettenham Street Maintenance Yard Water Point", "type": "water_point", "lat": 53.256222, "lon": -2.114419}, {"name": "The Garsdale", "type": "pub", "lat": 53.605613, "lon": -2.301748}, {"name": "The Sir Alexander Fleming", "type": "pub", "lat": 51.518664, "lon": -0.173644}, {"name": "Coppermill Lock Water Point", "type": "water_point", "lat": 51.610654, "lon": -0.498698}, {"name": "Cowley Lock Water Point", "type": "water_point", "lat": 51.52939, "lon": -0.485632}, {"name": "Hanwell Flight Top Water Point", "type": "water_point", "lat": 51.501559, "lon": -0.363705}, {"name": "Bulls Bridge Water Point", "type": "water_point", "lat": 51.499407, "lon": -0.405915}, {"name": "The Dirty Duck", "type": "pub", "lat": 52.189557, "lon": -1.705565}, {"name": "The Shed Alehouse", "type": "pub", "lat": 51.340266, "lon": -1.766069}, {"name": "The Sunbeam", "type": "pub", "lat": 52.586439, "lon": -2.12269}, {"name": "Just Beer Micropub", "type": "pub", "lat": 53.076527, "lon": -0.81365}, {"name": "Barton Water Point", "type": "water_point", "lat": 52.762321, "lon": -1.701443}, {"name": "The Old Post Office Ale House", "type": "pub", "lat": 53.590636, "lon": -2.177401}, {"name": "Blue Pits Inn", "type": "pub", "lat": 53.591248, "lon": -2.178043}, {"name": "La Brasserie", "type": "pub", "lat": 52.388072, "lon": -2.250929}, {"name": "The Mill", "type": "pub", "lat": 53.477895, "lon": -2.231004}, {"name": "Etruria Elsan Point", "type": "sanitary", "lat": 53.019354, "lon": -2.19273}, {"name": "Etruria Water Point", "type": "water_point", "lat": 53.019364, "lon": -2.192753}, {"name": "Park Lane Bridge Elsan Point", "type": "sanitary", "lat": 53.079467, "lon": -2.101429}, {"name": "Park Lane Bridge Pump Out", "type": "sanitary", "lat": 53.079502, "lon": -2.101232}, {"name": "Park Lane Bridge Water Point", "type": "water_point", "lat": 53.079619, "lon": -2.10113}, {"name": "Gas Works", "type": "pub", "lat": 53.473416, "lon": -2.246227}, {"name": "New Inn", "type": "pub", "lat": 51.997752, "lon": -0.985792}, {"name": "13", "type": "pub", "lat": 52.001444, "lon": -0.98489}, {"name": "The Flying Circus", "type": "pub", "lat": 53.076292, "lon": -0.813005}, {"name": "The Moderation", "type": "pub", "lat": 51.464298, "lon": -0.977486}, {"name": "Brew York Tap Room", "type": "pub", "lat": 53.957668, "lon": -1.076351}, {"name": "Little Green Dragon", "type": "pub", "lat": 51.636061, "lon": -0.090962}, {"name": "The Bird in Hand", "type": "pub", "lat": 52.476032, "lon": -2.156253}, {"name": "The Vine Inn", "type": "pub", "lat": 52.534225, "lon": -2.414193}, {"name": "The Fosters Arms", "type": "pub", "lat": 52.53429, "lon": -2.414144}, {"name": "The Falcon", "type": "pub", "lat": 52.53404, "lon": -2.414201}, {"name": "King's Arms", "type": "pub", "lat": 53.565458, "lon": -2.966607}, {"name": "The Hidden Hebden", "type": "pub", "lat": 53.741406, "lon": -2.01321}, {"name": "Old Barn Owl", "type": "pub", "lat": 50.976796, "lon": -2.874913}, {"name": "Weymouth Working Men's Club", "type": "pub", "lat": 50.607834, "lon": -2.453706}, {"name": "Buckby Wharf Water Point", "type": "water_point", "lat": 52.285913, "lon": -1.114883}, {"name": "Norton Junction Water Point", "type": "water_point", "lat": 52.286286, "lon": -1.1189}, {"name": "Purton Ships Graveyard Pump Out", "type": "sanitary", "lat": 51.736822, "lon": -2.455618}, {"name": "Purton Ships Graveyard Water Point", "type": "water_point", "lat": 51.736853, "lon": -2.455559}, {"name": "The Wolf", "type": "pub", "lat": 52.486496, "lon": -1.901734}, {"name": "Newtown Lock", "type": "lock", "lat": 51.132327, "lon": -3.007711}, {"name": "The Swan Inn", "type": "pub", "lat": 53.567823, "lon": -2.02399}, {"name": "The Wharf", "type": "pub", "lat": 52.337419, "lon": -2.279702}, {"name": "The Beer Engine", "type": "pub", "lat": 53.960907, "lon": -2.019203}, {"name": "Heist Bank", "type": "pub", "lat": 51.518813, "lon": -0.176148}, {"name": "Napton Water Point", "type": "water_point", "lat": 52.243, "lon": -1.330924}, {"name": "Napton Elsan Point", "type": "sanitary", "lat": 52.24249, "lon": -1.330746}, {"name": "Nash Mills Top Lock Water Point", "type": "water_point", "lat": 51.729779, "lon": -0.454}, {"name": "Hillmorton Elsan Point", "type": "sanitary", "lat": 52.36553, "lon": -1.211676}, {"name": "Kintbury Slucice point", "type": "sanitary", "lat": 51.402291, "lon": -1.446866}, {"name": "City Road Lock Water Point", "type": "water_point", "lat": 51.532879, "lon": -0.099892}, {"name": "Nine Elms Tavern", "type": "pub", "lat": 51.482526, "lon": -0.137502}, {"name": "Boughton Road Water Point", "type": "water_point", "lat": 52.389409, "lon": -1.25293}, {"name": "The Anchor Inn", "type": "pub", "lat": 52.549193, "lon": -1.507284}, {"name": "The Sump", "type": "pub", "lat": 52.813197, "lon": -1.61136}, {"name": "Hawkesbury Junction Water Point", "type": "water_point", "lat": 52.457183, "lon": -1.470479}, {"name": "Topsham Brewery & Taproom", "type": "pub", "lat": 50.716898, "lon": -3.529523}, {"name": "Penkridge Elsan Point", "type": "sanitary", "lat": 52.723584, "lon": -2.107516}, {"name": "Bradley Green Wharf Elsan Point", "type": "sanitary", "lat": 52.598576, "lon": -1.580221}, {"name": "The Pomfret Arms", "type": "pub", "lat": 52.229991, "lon": -0.896459}, {"name": "Fabal Beerhall", "type": "pub", "lat": 51.499377, "lon": -0.074741}, {"name": "Swettenham Street Maintenance Yard Water Point", "type": "water_point", "lat": 53.259031, "lon": -2.113746}, {"name": "The Three Locks", "type": "pub", "lat": 53.847607, "lon": -1.836679}, {"name": "Bridge 61", "type": "pub", "lat": 52.501324, "lon": -0.982845}, {"name": "The Whitehouse", "type": "pub", "lat": 52.515965, "lon": -2.38687}, {"name": "Ferry Lane Social Club", "type": "pub", "lat": 52.755414, "lon": 0.39181}, {"name": "Knottingley Conservative Club", "type": "pub", "lat": 53.709701, "lon": -1.248882}, {"name": "Knottingley RUFC", "type": "pub", "lat": 53.710701, "lon": -1.233516}, {"name": "Reddich Road Water Point", "type": "water_point", "lat": 52.372558, "lon": -1.95566}, {"name": "The Bull and Stirrup Hotel", "type": "pub", "lat": 53.194361, "lon": -2.89333}, {"name": "The Kings Arms", "type": "pub", "lat": 50.606771, "lon": -2.454817}, {"name": "Chip N Ern", "type": "pub", "lat": 53.849258, "lon": -1.838715}, {"name": "Via", "type": "pub", "lat": 53.477207, "lon": -2.236759}, {"name": "Penkridge Water Point", "type": "water_point", "lat": 52.723551, "lon": -2.107519}, {"name": "The Three Cups", "type": "pub", "lat": 51.999561, "lon": -0.987542}, {"name": "Sports Bar & Grill", "type": "pub", "lat": 51.506216, "lon": -0.018514}, {"name": "White Swan", "type": "pub", "lat": 52.507816, "lon": -2.096544}, {"name": "Northumberland Arms", "type": "pub", "lat": 51.482251, "lon": -0.312771}, {"name": "The Boundary", "type": "pub", "lat": 53.475643, "lon": -2.114968}, {"name": "Anchor Inn", "type": "pub", "lat": 54.098897, "lon": -1.398587}, {"name": "Grantham Arms", "type": "pub", "lat": 54.09896, "lon": -1.396718}, {"name": "The Milton Club", "type": "pub", "lat": 53.47795, "lon": -2.249955}, {"name": "On Broadway", "type": "pub", "lat": 51.631986, "lon": -0.095741}, {"name": "The Three Wishes", "type": "pub", "lat": 51.631702, "lon": -0.095921}, {"name": "Accidental Brewery", "type": "pub", "lat": 54.047564, "lon": -2.796199}, {"name": "Liverpool Arms", "type": "pub", "lat": 53.193674, "lon": -2.89348}, {"name": "Attic Brew Co.", "type": "pub", "lat": 52.426265, "lon": -1.925401}, {"name": "Brownshill Staunch Lock", "type": "lock", "lat": 52.335177, "lon": 0.008654}, {"name": "The Lock Keepers Rest", "type": "pub", "lat": 52.872795, "lon": -1.291922}, {"name": "Bod", "type": "pub", "lat": 53.0077, "lon": -2.1803}, {"name": "Batchworth Lock Elsan Point", "type": "sanitary", "lat": 51.634721, "lon": -0.466616}, {"name": "Red Lion", "type": "pub", "lat": 53.753913, "lon": -2.445958}, {"name": "Royal Oak", "type": "pub", "lat": 53.077522, "lon": -0.811096}, {"name": "Cowley Lock Elsan Point", "type": "sanitary", "lat": 51.529369, "lon": -0.485628}, {"name": "Hanwell Flight Top Elsan Point", "type": "sanitary", "lat": 51.501576, "lon": -0.363636}, {"name": "Alperton Elsan and Water Point", "type": "sanitary", "lat": 51.539048, "lon": -0.296516}, {"name": "Little Venice Water Point", "type": "water_point", "lat": 51.521368, "lon": -0.184453}, {"name": "Sturts Lock Elsan Point", "type": "sanitary", "lat": 51.534944, "lon": -0.091346}, {"name": "Victoria Park Old Ford Lock Elsan Point", "type": "sanitary", "lat": 51.532587, "lon": -0.045546}, {"name": "Victoria Park Water Point", "type": "water_point", "lat": 51.532696, "lon": -0.045771}, {"name": "Victoria Park Old Ford Lock Water Point", "type": "water_point", "lat": 51.532569, "lon": -0.045547}, {"name": "Carthegena Lock Water Point", "type": "water_point", "lat": 51.743591, "lon": -0.002177}, {"name": "The Ice Wharf", "type": "pub", "lat": 51.540758, "lon": -0.145655}, {"name": "Cassiobridge Water Point", "type": "water_point", "lat": 51.654871, "lon": -0.427783}, {"name": "Batchworth Lock Water Point", "type": "water_point", "lat": 51.634759, "lon": -0.466574}, {"name": "Slough Basin Water Point", "type": "water_point", "lat": 51.517269, "lon": -0.589501}, {"name": "Stanstead Lock Water Point", "type": "water_point", "lat": 51.791398, "lon": -0.000334}, {"name": "Hertford Basin Water Point", "type": "water_point", "lat": 51.800508, "lon": -0.073856}, {"name": "Hertford Basin Elsan Point", "type": "sanitary", "lat": 51.800411, "lon": -0.073983}, {"name": "Picketts Lock Water Point", "type": "water_point", "lat": 51.626089, "lon": -0.032533}, {"name": "Stonebridge Elsan Point", "type": "sanitary", "lat": 51.597807, "lon": -0.050149}, {"name": "Stonebridge Water Point", "type": "water_point", "lat": 51.597717, "lon": -0.049971}, {"name": "Stonebridge Elsan Point", "type": "sanitary", "lat": 51.597687, "lon": -0.050013}, {"name": "Old Ford Lock Elsan Point", "type": "sanitary", "lat": 51.538061, "lon": -0.020646}, {"name": "Brew York Beer Hall", "type": "pub", "lat": 53.957642, "lon": -1.076123}, {"name": "Reubens", "type": "pub", "lat": 53.849655, "lon": -1.839154}, {"name": "Hetherington's Cafe Bar", "type": "pub", "lat": 53.479721, "lon": -2.221285}, {"name": "The Ship", "type": "pub", "lat": 51.294529, "lon": -1.807688}, {"name": "Crown & Anchor", "type": "pub", "lat": 53.498602, "lon": 0.022118}, {"name": "Tap and Can", "type": "pub", "lat": 52.711366, "lon": -2.750463}, {"name": "Cask", "type": "pub", "lat": 53.48383, "lon": -2.225401}, {"name": "Elms Inn", "type": "pub", "lat": 52.801493, "lon": -1.621355}, {"name": "Drink", "type": "pub", "lat": 53.741303, "lon": -2.015369}, {"name": "Vocation", "type": "pub", "lat": 53.740675, "lon": -2.011538}, {"name": "Garrison Inn micropub", "type": "pub", "lat": 52.48694, "lon": -2.114084}, {"name": "The Weston Rooms", "type": "pub", "lat": 53.397213, "lon": -0.775579}, {"name": "The Barrel Project", "type": "pub", "lat": 51.499472, "lon": -0.074879}, {"name": "Apsley Services Elsan Point", "type": "sanitary", "lat": 51.736747, "lon": -0.463986}, {"name": "Apsley Services Water Point", "type": "water_point", "lat": 51.736723, "lon": -0.46396}, {"name": "Berkhamstead South Water Point", "type": "water_point", "lat": 51.757168, "lon": -0.552616}, {"name": "Middlesex and Herts Boat Services Water Point", "type": "water_point", "lat": 51.746602, "lon": -0.513722}, {"name": "Middlesex and Herts Boat Services Elsan Point", "type": "water_point", "lat": 51.746837, "lon": -0.513484}, {"name": "Middlesex and Herts Boat Services Fuel Pump", "type": "water_point", "lat": 51.746656, "lon": -0.513648}, {"name": "Waterway Experiences Water Point", "type": "water_point", "lat": 51.726983, "lon": -0.451662}, {"name": "Berkhamstead Water Point", "type": "water_point", "lat": 51.762827, "lon": -0.566762}, {"name": "Cow Roast Elsan Point", "type": "sanitary", "lat": 51.783531, "lon": -0.611792}, {"name": "Cow Roast Water Point", "type": "water_point", "lat": 51.783839, "lon": -0.612419}, {"name": "Aylesbury Arm Junction Water Point", "type": "water_point", "lat": 51.821394, "lon": -0.66971}, {"name": "Aylesbury Arm Junction Elsan Point", "type": "sanitary", "lat": 51.821444, "lon": -0.669774}, {"name": "Isfield Lock", "type": "lock", "lat": 50.948449, "lon": 0.049293}, {"name": "Isfield Lock", "type": "lock", "lat": 50.948634, "lon": 0.049317}, {"name": "Peartree Bridge Water Point", "type": "water_point", "lat": 52.028832, "lon": -0.730936}, {"name": "Peartree Bridge Water Point", "type": "water_point", "lat": 52.028741, "lon": -0.730912}, {"name": "Cosgrove Lock Water Point", "type": "water_point", "lat": 52.07277, "lon": -0.84122}, {"name": "The Wonky Pear", "type": "pub", "lat": 53.156667, "lon": -2.19218}, {"name": "The Bishops' Mill", "type": "pub", "lat": 54.778235, "lon": -1.575729}, {"name": "Weedon Bec Water Point", "type": "water_point", "lat": 52.224809, "lon": -1.066407}, {"name": "Bascote Water Point", "type": "water_point", "lat": 52.273527, "lon": -1.405834}, {"name": "Fosse Elsan Point", "type": "sanitary", "lat": 52.275389, "lon": -1.466298}, {"name": "Fosse Water Point", "type": "water_point", "lat": 52.275351, "lon": -1.466192}, {"name": "Cape Top Lock Water Point", "type": "water_point", "lat": 52.292435, "lon": -1.595884}, {"name": "Ponders End Water Point", "type": "water_point", "lat": 51.641517, "lon": -0.030084}, {"name": "Gas Street Basin Elsan Point", "type": "sanitary", "lat": 52.475072, "lon": -1.907977}, {"name": "Windmill End Water Point", "type": "water_point", "lat": 52.490834, "lon": -2.070942}, {"name": "Stourbridge Town Arm Water Point", "type": "water_point", "lat": 52.46115, "lon": -2.153004}, {"name": "Stourton Water Point", "type": "water_point", "lat": 52.462168, "lon": -2.205551}, {"name": "Greensforge Water Point", "type": "water_point", "lat": 52.496016, "lon": -2.204765}, {"name": "Kinver Water Point", "type": "water_point", "lat": 52.450281, "lon": -2.226031}, {"name": "Kinver Water Point", "type": "water_point", "lat": 52.450384, "lon": -2.225794}, {"name": "Kinver Elsan Point", "type": "sanitary", "lat": 52.450277, "lon": -2.226}, {"name": "The New Port Arms", "type": "pub", "lat": 50.831207, "lon": -0.235328}, {"name": "Stourbridge Basin Elsan Point", "type": "sanitary", "lat": 52.461024, "lon": -2.149754}, {"name": "Stourbridge Basin Water Point", "type": "water_point", "lat": 52.461023, "lon": -2.149683}, {"name": "Albion Inn", "type": "pub", "lat": 50.83185, "lon": -0.221886}, {"name": "Brewhouse & Kitchen", "type": "pub", "lat": 51.861115, "lon": -2.253549}, {"name": "Autherley Water Point", "type": "water_point", "lat": 52.617062, "lon": -2.148455}, {"name": "Gailey Water Point", "type": "water_point", "lat": 52.690407, "lon": -2.120029}, {"name": "Gailey Water Point", "type": "water_point", "lat": 52.690662, "lon": -2.119949}, {"name": "Gailey Elsan Point", "type": "sanitary", "lat": 52.69108, "lon": -2.119858}, {"name": "Fradley Junction Water Point", "type": "water_point", "lat": 52.724511, "lon": -1.79066}, {"name": "Nantwich Junction Elsan Point", "type": "sanitary", "lat": 53.072005, "lon": -2.539349}, {"name": "Wheaton Aston Water Point", "type": "water_point", "lat": 52.712868, "lon": -2.212995}, {"name": "Gnosall Water Point", "type": "water_point", "lat": 52.780935, "lon": -2.269271}, {"name": "Gnosall Water Point", "type": "water_point", "lat": 52.781074, "lon": -2.269395}, {"name": "Norbury Junction Water Point", "type": "water_point", "lat": 52.802369, "lon": -2.307707}, {"name": "Goldstone Water Point", "type": "water_point", "lat": 52.861813, "lon": -2.440026}, {"name": "Tyrley Locks Water Point", "type": "water_point", "lat": 52.888498, "lon": -2.4609}, {"name": "Talbot Wharf Water Point", "type": "water_point", "lat": 52.908383, "lon": -2.472395}, {"name": "Audlem Water Point", "type": "water_point", "lat": 52.989443, "lon": -2.512331}, {"name": "Grindley Brook Elsan Point", "type": "sanitary", "lat": 52.980767, "lon": -2.71134}, {"name": "Grindley Brook Pump Out", "type": "sanitary", "lat": 52.980138, "lon": -2.711617}, {"name": "Hurleston Elsan Point", "type": "sanitary", "lat": 53.092286, "lon": -2.565251}, {"name": "Audlem Water Point", "type": "water_point", "lat": 52.988785, "lon": -2.511322}, {"name": "Audlem Elsan Point", "type": "sanitary", "lat": 52.988859, "lon": -2.511194}, {"name": "Talbot Wharf Water Point", "type": "water_point", "lat": 52.908247, "lon": -2.472244}, {"name": "Talbot Wharf Pump Out", "type": "sanitary", "lat": 52.908514, "lon": -2.472544}, {"name": "Tyrley Locks Elsan Point", "type": "sanitary", "lat": 52.888589, "lon": -2.461117}, {"name": "Norbury Junction Elsan Point", "type": "sanitary", "lat": 52.802267, "lon": -2.30779}, {"name": "Ellesmere Elsan Point", "type": "sanitary", "lat": 52.902214, "lon": -2.892594}, {"name": "The Cellar", "type": "pub", "lat": 53.19316, "lon": -2.881915}, {"name": "The Central Bar", "type": "pub", "lat": 51.483334, "lon": -3.172892}, {"name": "Aston Bottom Lock", "type": "lock", "lat": 52.824685, "lon": -2.997735}, {"name": "Aston Bottom Lock", "type": "lock", "lat": 52.824874, "lon": -2.997551}, {"name": "Aston Middle Lock", "type": "lock", "lat": 52.827646, "lon": -2.992964}, {"name": "Aston Middle Lock", "type": "lock", "lat": 52.827786, "lon": -2.992702}, {"name": "Aston Top Lock", "type": "lock", "lat": 52.831523, "lon": -2.986734}, {"name": "Aston Top Lock", "type": "lock", "lat": 52.831347, "lon": -2.987001}, {"name": "Maesbury Elsan Point", "type": "sanitary", "lat": 52.818277, "lon": -3.020124}, {"name": "Maesbury Water Point", "type": "water_point", "lat": 52.81823, "lon": -3.020245}, {"name": "Weston Arm Water Point", "type": "water_point", "lat": 52.873419, "lon": -2.938787}, {"name": "Weston Arm Water Point", "type": "water_point", "lat": 52.873447, "lon": -2.938476}, {"name": "Weston Arm Elsan Point", "type": "sanitary", "lat": 52.873478, "lon": -2.938056}, {"name": "Watford Top Lock Elsan Point", "type": "sanitary", "lat": 52.315092, "lon": -1.131506}, {"name": "Belan Top Lock", "type": "lock", "lat": 52.639029, "lon": -3.160587}, {"name": "The Dolphin", "type": "pub", "lat": 51.543604, "lon": -0.487835}, {"name": "Pool Quay Lock", "type": "lock", "lat": 52.696926, "lon": -3.102353}, {"name": "Pool Quay Lock", "type": "lock", "lat": 52.697103, "lon": -3.102202}, {"name": "Bank Lock", "type": "lock", "lat": 52.708759, "lon": -3.096435}, {"name": "Bank Lock", "type": "lock", "lat": 52.70898, "lon": -3.096341}, {"name": "Crowther Hall Lock", "type": "lock", "lat": 52.702195, "lon": -3.10001}, {"name": "Crowther Hall Lock", "type": "lock", "lat": 52.70242, "lon": -3.099912}, {"name": "Cabin Lock", "type": "lock", "lat": 52.704665, "lon": -3.099725}, {"name": "Cabin Lock", "type": "lock", "lat": 52.704432, "lon": -3.099754}, {"name": "Burgedin Bottom Lock", "type": "lock", "lat": 52.72448, "lon": -3.108634}, {"name": "Burgedin Bottom Lock", "type": "lock", "lat": 52.724292, "lon": -3.108847}, {"name": "Burgedin Top Lock", "type": "lock", "lat": 52.725321, "lon": -3.107432}, {"name": "Burgedin Top Lock", "type": "lock", "lat": 52.725165, "lon": -3.107693}, {"name": "Carreghofa Top Lock", "type": "lock", "lat": 52.774801, "lon": -3.10693}, {"name": "Shiplake Lock Sanitary Station", "type": "sanitary", "lat": 51.500864, "lon": -0.88511}, {"name": "Ye Olde No. 3 water point", "type": "water_point", "lat": 53.375367, "lon": -2.417955}, {"name": "Dean Lock Water Point", "type": "water_point", "lat": 53.561605, "lon": -2.702981}, {"name": "Middlewich Water Point", "type": "water_point", "lat": 53.192493, "lon": -2.443409}, {"name": "Anderton Water Point", "type": "water_point", "lat": 53.276577, "lon": -2.523451}, {"name": "Anderton Elsan Point", "type": "sanitary", "lat": 53.276528, "lon": -2.523215}, {"name": "The Duke Of Wellington (Closed)", "type": "pub", "lat": 53.101396, "lon": 0.068769}, {"name": "Maryhill Top Lock 23", "type": "lock", "lat": 55.89326, "lon": -4.297805}, {"name": "GlassHouse", "type": "pub", "lat": 52.421984, "lon": -1.923876}, {"name": "Slaithwaite Water Point", "type": "water_point", "lat": 53.623449, "lon": -1.877892}, {"name": "Diggle Water Point", "type": "water_point", "lat": 53.567816, "lon": -1.992707}, {"name": "Uppermill Water Point", "type": "water_point", "lat": 53.547403, "lon": -2.00803}, {"name": "Grove Road Elsan Point", "type": "sanitary", "lat": 53.495616, "lon": -2.039161}, {"name": "Stone Water Point", "type": "water_point", "lat": 52.900108, "lon": -2.145579}, {"name": "The Prince Rupert", "type": "pub", "lat": 53.076396, "lon": -0.812264}, {"name": "Whaley Bridge Elsan Point", "type": "sanitary", "lat": 53.332198, "lon": -1.983434}, {"name": "New Mills Marina Water Point", "type": "water_point", "lat": 53.360783, "lon": -2.005169}, {"name": "Marple Water Point", "type": "water_point", "lat": 53.392048, "lon": -2.06061}, {"name": "Marple Elsan Point", "type": "sanitary", "lat": 53.392076, "lon": -2.060629}, {"name": "Castlefield Water Point", "type": "water_point", "lat": 53.474665, "lon": -2.257996}, {"name": "Castlefield Water Point", "type": "water_point", "lat": 53.474598, "lon": -2.258306}, {"name": "Froghall Junction Water Point", "type": "water_point", "lat": 53.026454, "lon": -1.962222}, {"name": "Horninglow Basin Water Point", "type": "water_point", "lat": 52.819051, "lon": -1.640252}, {"name": "The Star & Garter", "type": "pub", "lat": 55.878037, "lon": -4.267816}, {"name": "The Real Ale Tavern", "type": "pub", "lat": 52.37591, "lon": -2.315229}, {"name": "White Horse Inn", "type": "pub", "lat": 53.39847, "lon": -0.77672}, {"name": "The Eight Jolly Brewers", "type": "pub", "lat": 53.398924, "lon": -0.777171}, {"name": "The Canute", "type": "pub", "lat": 53.398811, "lon": -0.776795}, {"name": "Beavertown Brewery Taproom", "type": "pub", "lat": 51.590616, "lon": -0.056796}, {"name": "The Lass O'Gowrie", "type": "pub", "lat": 53.474117, "lon": -2.237819}, {"name": "Yelvertoft Water Point", "type": "water_point", "lat": 52.36981, "lon": -1.111601}, {"name": "Crick Water Point", "type": "water_point", "lat": 52.347648, "lon": -1.127094}, {"name": "Last Hop", "type": "pub", "lat": 51.433495, "lon": -0.516168}, {"name": "Ebley Flood Gate", "type": "lock", "lat": 51.740167, "lon": -2.248523}, {"name": "The Jolly Sailor", "type": "pub", "lat": 51.409869, "lon": -2.443357}, {"name": "Tap Social", "type": "pub", "lat": 52.063778, "lon": -1.334404}, {"name": "Watford Top Lock Water Point", "type": "water_point", "lat": 52.315117, "lon": -1.131407}, {"name": "Crick Elsan Point", "type": "sanitary", "lat": 52.347629, "lon": -1.127061}, {"name": "Welford Wharf Elsan Point", "type": "sanitary", "lat": 52.422571, "lon": -1.054275}, {"name": "Market Harborough Elsan Point", "type": "sanitary", "lat": 52.484451, "lon": -0.931328}, {"name": "Market Harborough Water Point", "type": "water_point", "lat": 52.484284, "lon": -0.932797}, {"name": "Market Harborough Water Point", "type": "water_point", "lat": 52.484213, "lon": -0.93326}, {"name": "Market Harborough Water Point", "type": "water_point", "lat": 52.484031, "lon": -0.933687}, {"name": "Market Harborough Water Point", "type": "water_point", "lat": 52.483783, "lon": -0.934036}, {"name": "Market Harborough Water Point", "type": "water_point", "lat": 52.483514, "lon": -0.934313}, {"name": "Kilby Bridge Water Point", "type": "water_point", "lat": 52.567705, "lon": -1.102987}, {"name": "Loughborough Canal Basin Water Point", "type": "water_point", "lat": 52.774854, "lon": -1.210996}, {"name": "Loughborough Canal Basin Elsan Point", "type": "sanitary", "lat": 52.774911, "lon": -1.211025}, {"name": "Bishop Meadow Lock Water Point", "type": "water_point", "lat": 52.789272, "lon": -1.216336}, {"name": "Trent Lock Elsan Point", "type": "sanitary", "lat": 52.876565, "lon": -1.272707}, {"name": "Trent Lock Water Point", "type": "water_point", "lat": 52.876495, "lon": -1.272936}, {"name": "Langley Mill Water Point", "type": "water_point", "lat": 53.020144, "lon": -1.324559}, {"name": "Atherstone Top Lock Elsan Point", "type": "sanitary", "lat": 52.574415, "lon": -1.549879}, {"name": "Hawkesbury Junction Elsan Point", "type": "sanitary", "lat": 52.457381, "lon": -1.46955}, {"name": "Atherstone Top Lock Water Point", "type": "water_point", "lat": 52.574447, "lon": -1.549853}, {"name": "Park Lane Bridge Water Point", "type": "water_point", "lat": 53.079487, "lon": -2.101223}, {"name": "Park Lane Bridge Water Point", "type": "water_point", "lat": 53.079277, "lon": -2.101389}, {"name": "The Halfway", "type": "pub", "lat": 51.647924, "lon": -3.024534}, {"name": "Rising Sun", "type": "pub", "lat": 51.590104, "lon": -3.046188}, {"name": "Tredegar Arms", "type": "pub", "lat": 51.593234, "lon": -3.05421}, {"name": "Workingmen's Club", "type": "pub", "lat": 51.657802, "lon": -3.026416}, {"name": "Bewdley Brewery Tap Room", "type": "pub", "lat": 52.373988, "lon": -2.311697}, {"name": "The Barrel Store by Attic", "type": "pub", "lat": 52.485902, "lon": -1.902412}, {"name": "Feildes Lock Water Point", "type": "water_point", "lat": 51.763362, "lon": 0.012832}, {"name": "Cheddleton Water Point", "type": "water_point", "lat": 53.069962, "lon": -2.041804}, {"name": "Waterloo Inn", "type": "pub", "lat": 51.641819, "lon": -3.02562}, {"name": "Red Bull Water Point", "type": "water_point", "lat": 53.092703, "lon": -2.259208}, {"name": "Red Bull Water Point", "type": "water_point", "lat": 53.092806, "lon": -2.259758}, {"name": "Red Bull Elsan Point", "type": "sanitary", "lat": 53.092812, "lon": -2.259292}, {"name": "Harecastle Tunnel Southern Portal Water Point", "type": "water_point", "lat": 53.062748, "lon": -2.226535}, {"name": "Harecastle Tunnel Northern Portal Water Point", "type": "water_point", "lat": 53.084647, "lon": -2.244476}, {"name": "Harecastle Elsan Point", "type": "sanitary", "lat": 53.084641, "lon": -2.24449}, {"name": "Barton Water Point", "type": "water_point", "lat": 52.762177, "lon": -1.701636}, {"name": "Willington Elsan Point", "type": "sanitary", "lat": 52.854694, "lon": -1.562654}, {"name": "Llangollen Elsan Point", "type": "sanitary", "lat": 52.970997, "lon": -3.16573}, {"name": "3 Locks Brewing Company", "type": "pub", "lat": 51.542201, "lon": -0.143334}, {"name": "Cleo's Cocktails & Coffee Bar", "type": "pub", "lat": 52.627866, "lon": -2.484028}, {"name": "The Flute and Tankard", "type": "pub", "lat": 51.483188, "lon": -3.173107}, {"name": "The Anchor", "type": "pub", "lat": 50.607554, "lon": -2.455094}, {"name": "The White Hart", "type": "pub", "lat": 53.490441, "lon": -0.775446}, {"name": "Boat and Horses Pub", "type": "pub", "lat": 53.527872, "lon": -2.159466}, {"name": "Tophams Tavern", "type": "pub", "lat": 53.633611, "lon": -2.114325}, {"name": "The Fox", "type": "pub", "lat": 53.713411, "lon": -2.097515}, {"name": "Werewolf Beer", "type": "pub", "lat": 51.541519, "lon": -0.136387}, {"name": "The Spread Eagle", "type": "pub", "lat": 52.604025, "lon": -2.053671}, {"name": "Sharpness Old Dock Water Point", "type": "water_point", "lat": 51.725223, "lon": -2.474001}, {"name": "Crate", "type": "pub", "lat": 51.502831, "lon": -0.013497}, {"name": "Bunch of Grapes", "type": "pub", "lat": 51.602568, "lon": -3.331437}, {"name": "Bridge End Workmens Club", "type": "pub", "lat": 53.706984, "lon": -2.104169}, {"name": "Leeds Water Point", "type": "water_point", "lat": 53.792977, "lon": -1.552759}, {"name": "Kettlesmith Brewing Company", "type": "pub", "lat": 51.336589, "lon": -2.250644}, {"name": "Weavers", "type": "pub", "lat": 52.38453, "lon": -2.251257}, {"name": "Inferno Brewery", "type": "pub", "lat": 51.998138, "lon": -2.153527}, {"name": "Coal Kitchen", "type": "pub", "lat": 51.860768, "lon": -2.253716}, {"name": "Royal Oak", "type": "pub", "lat": 52.524432, "lon": -2.047604}, {"name": "Old England Forever", "type": "pub", "lat": 53.774227, "lon": -2.385328}, {"name": "Nightjar Brewing Co", "type": "pub", "lat": 53.729669, "lon": -1.975594}, {"name": "The Exchange", "type": "pub", "lat": 52.516709, "lon": -3.316651}, {"name": "Lock (R225)", "type": "lock", "lat": 51.695172, "lon": -0.010056}, {"name": "Hop Kettle", "type": "pub", "lat": 51.863699, "lon": -2.249744}, {"name": "The Hare & Hounds", "type": "pub", "lat": 53.51513, "lon": -2.945578}, {"name": "Lvls", "type": "pub", "lat": 51.54059, "lon": -0.02084}, {"name": "Three Falcons Indian Gastropub", "type": "pub", "lat": 51.524102, "lon": -0.174622}, {"name": "The Beer Necessities", "type": "pub", "lat": 53.713071, "lon": -2.097713}, {"name": "Three Wise Monkeys", "type": "pub", "lat": 53.713115, "lon": -2.097656}, {"name": "Bull on the Bridge", "type": "pub", "lat": 53.70867, "lon": -1.911372}, {"name": "The Shrewsbury Hotel", "type": "pub", "lat": 52.709468, "lon": -2.756969}, {"name": "The Red Lion", "type": "pub", "lat": 51.392113, "lon": -0.331971}, {"name": "The Pennine Club", "type": "pub", "lat": 53.741157, "lon": -2.011379}, {"name": "Mulligans", "type": "pub", "lat": 53.847616, "lon": -1.836888}, {"name": "Can Do", "type": "pub", "lat": 53.847594, "lon": -1.834407}, {"name": "The Castle", "type": "pub", "lat": 52.631927, "lon": -1.14028}, {"name": "The City Arms", "type": "pub", "lat": 51.390974, "lon": -0.322322}, {"name": "bSb", "type": "pub", "lat": 51.450814, "lon": -2.598389}, {"name": "Mackenzies Bar + Kitchen", "type": "pub", "lat": 51.451098, "lon": -2.598347}, {"name": "The Bristol Stable", "type": "pub", "lat": 51.451549, "lon": -2.598266}, {"name": "No.1 Harbourside", "type": "pub", "lat": 51.452099, "lon": -2.598099}, {"name": "The Cider Box", "type": "pub", "lat": 51.450735, "lon": -2.571173}, {"name": "The Knights Templar", "type": "pub", "lat": 51.450778, "lon": -2.582236}, {"name": "Pitcher & Piano", "type": "pub", "lat": 52.478098, "lon": -1.911701}, {"name": "The Alchemist", "type": "pub", "lat": 52.478345, "lon": -1.912494}, {"name": "The Mothers' Ruin", "type": "pub", "lat": 51.453842, "lon": -2.593081}, {"name": "The Curious Fox", "type": "pub", "lat": 53.963877, "lon": -2.017863}, {"name": "Waterside Tap", "type": "pub", "lat": 52.476833, "lon": -1.909387}, {"name": "The White Lion", "type": "pub", "lat": 53.501209, "lon": -2.181364}, {"name": "Indian Brewery Taproom", "type": "pub", "lat": 52.485981, "lon": -1.903919}, {"name": "DEN 97", "type": "pub", "lat": 51.215401, "lon": -0.794705}, {"name": "The Shamrock Social", "type": "pub", "lat": 52.949345, "lon": -1.148455}, {"name": "BMAN Brewery and Taproom", "type": "pub", "lat": 51.735146, "lon": -1.24037}, {"name": "Royal George", "type": "pub", "lat": 53.713164, "lon": -2.097999}, {"name": "The Colonial", "type": "pub", "lat": 56.009527, "lon": -3.78521}, {"name": "The Pig & Fiddle", "type": "pub", "lat": 51.384325, "lon": -2.360198}, {"name": "The Crafty Pint", "type": "pub", "lat": 53.482208, "lon": -2.057476}, {"name": "Bridge Beers", "type": "pub", "lat": 53.482027, "lon": -2.057405}, {"name": "Felson's - Birmingham", "type": "pub", "lat": 52.477781, "lon": -1.910622}, {"name": "Castleford Services", "type": "sanitary", "lat": 53.73131, "lon": -1.356198}, {"name": "Castleford Services", "type": "water_point", "lat": 53.73131, "lon": -1.356198}, {"name": "Castleford Pump Out Housing", "type": "pumpout", "lat": 53.731445, "lon": -1.35615}, {"name": "Whitley Lock Sanitary Station", "type": "sanitary", "lat": 53.692044, "lon": -1.143978}, {"name": "Whitley Lock Sanitary Station", "type": "water_point", "lat": 53.692044, "lon": -1.143978}, {"name": "Goole Sanitary Station, Goole", "type": "sanitary", "lat": 53.695337, "lon": -0.886151}, {"name": "Goole Sanitary Station, Goole", "type": "water_point", "lat": 53.695337, "lon": -0.886151},