[{"name": "Fishery Inn", "type": "pub", "lat": 51.744293, "lon": -0.491059}, {"name": "Iron Bridge 77", "type": "lock", "lat": 51.664263, "lon": -0.426802}, {"name": "The Waterside", "type": "pub", "lat": 51.472726, "lon": -0.18116}, {"name": "River Crane Flood Gates", "type": "lock", "lat": 51.465409, "lon": -0.322784}, {"name": "Osterley Lock", "type": "lock", "lat": 51.496944, "lon": -0.332745}, {"name": "The Angelic", "type": "pub", "lat": 51.534789, "lon": -0.107288}, {"name": "Clitheroe Lock", "type": "lock", "lat": 51.489131, "lon": -0.321452}, {"name": "The Oxford Arms", "type": "pub", "lat": 51.540548, "lon": -0.144334}, {"name": "Lots Road", "type": "pub", "lat": 51.477673, "lon": -0.183343}, {"name": "Ye Olde Swan", "type": "pub", "lat": 51.392919, "lon": -0.331748}, {"name": "The Queens Head", "type": "pub", "lat": 51.731344, "lon": -0.025559}, {"name": "The Baring Arms", "type": "pub", "lat": 51.537057, "lon": -0.088477}, {"name": "The Colonel Fawcett", "type": "pub", "lat": 51.54181, "lon": -0.13599}, {"name": "The Bull's Head", "type": "pub", "lat": 51.484475, "lon": -0.278357}, {"name": "The Fox", "type": "pub", "lat": 51.504244, "lon": -0.343334}, {"name": "The Horniman", "type": "pub", "lat": 51.506112, "lon": -0.082921}, {"name": "The Moby Dick", "type": "pub", "lat": 51.495464, "lon": -0.039551}, {"name": "Osterley Lock", "type": "lock", "lat": 51.496677, "lon": -0.332531}, {"name": "Hanwell Lock", "type": "lock", "lat": 51.503898, "lon": -0.34478}, {"name": "The Greyhound", "type": "pub", "lat": 51.670387, "lon": -0.018159}, {"name": "The Slug and Lettuce", "type": "pub", "lat": 51.458774, "lon": -0.30779}, {"name": "Dickens Inn", "type": "pub", "lat": 51.506752, "lon": -0.070218}, {"name": "The Banker", "type": "pub", "lat": 51.509393, "lon": -0.091624}, {"name": "The Lamb", "type": "pub", "lat": 51.497156, "lon": -0.375732}, {"name": "Anchor Brewhouse", "type": "pub", "lat": 51.504108, "lon": -0.07531}, {"name": "The Ship Aground", "type": "pub", "lat": 51.500592, "lon": -0.070508}, {"name": "The Moretown Belle", "type": "pub", "lat": 51.507162, "lon": -0.067495}, {"name": "The Grosvenor", "type": "pub", "lat": 51.486613, "lon": -0.131592}, {"name": "The Fishermans Arms", "type": "pub", "lat": 51.529606, "lon": -0.249311}, {"name": "Grand Junction Arms", "type": "pub", "lat": 51.53439, "lon": -0.260462}, {"name": "Eastway Water Point", "type": "water_point", "lat": 51.547796, "lon": -0.026029}, {"name": "The Old Crown", "type": "pub", "lat": 51.504778, "lon": -0.419294}, {"name": "The Bishop", "type": "pub", "lat": 51.410308, "lon": -0.308042}, {"name": "Thames Barrier", "type": "lock", "lat": 51.496887, "lon": 0.037287}, {"name": "White Bear", "type": "pub", "lat": 51.634092, "lon": -0.467117}, {"name": "The Ram", "type": "pub", "lat": 51.40812, "lon": -0.307699}, {"name": "Cowley Lock Top Gate", "type": "lock", "lat": 51.529054, "lon": -0.485746}, {"name": "Cowley Lock Bottom Gate", "type": "lock", "lat": 51.528811, "lon": -0.4857}, {"name": "Clitheroe Lock", "type": "lock", "lat": 51.488892, "lon": -0.321491}, {"name": "The Henry Addington", "type": "pub", "lat": 51.504306, "lon": -0.022567}, {"name": "The Rocket", "type": "pub", "lat": 51.465532, "lon": -0.213083}, {"name": "The Riverside Vauxhall", "type": "pub", "lat": 51.485633, "lon": -0.127032}, {"name": "The Crocodile", "type": "pub", "lat": 51.702771, "lon": -0.04427}, {"name": "De Burgh Arms", "type": "pub", "lat": 51.510182, "lon": -0.473704}, {"name": "The Waterfront", "type": "pub", "lat": 51.464527, "lon": -0.185688}, {"name": "Old Ford Lock Water Point", "type": "water_point", "lat": 51.538023, "lon": -0.020693}, {"name": "The Malt Shovel", "type": "pub", "lat": 51.529741, "lon": -0.485607}, {"name": "Waters Edge", "type": "pub", "lat": 51.519965, "lon": -0.483088}, {"name": "The Magpie", "type": "pub", "lat": 51.405696, "lon": -0.40777}, {"name": "BrewDog", "type": "pub", "lat": 51.504644, "lon": -0.014697}, {"name": "The Green Dragon", "type": "pub", "lat": 51.703989, "lon": -0.048064}, {"name": "Waterman's Arms", "type": "pub", "lat": 51.459377, "lon": -0.307132}, {"name": "Islington Townhouse", "type": "pub", "lat": 51.533714, "lon": -0.106972}, {"name": "The Bridge House", "type": "pub", "lat": 51.521028, "lon": -0.184213}, {"name": "Crate Brewery & Pizza", "type": "pub", "lat": 51.542997, "lon": -0.022079}, {"name": "Mile End Water Point", "type": "water_point", "lat": 51.52784, "lon": -0.040072}, {"name": "Old Oak Tree", "type": "pub", "lat": 51.49518, "lon": -0.387922}, {"name": "Brewdog Paddington", "type": "pub", "lat": 51.519054, "lon": -0.170564}, {"name": "Lock 77 Iron Bridge", "type": "lock", "lat": 51.664503, "lon": -0.426816}, {"name": "Little Venice Boater Facilities", "type": "sanitary", "lat": 51.521374, "lon": -0.184503}, {"name": "The Gazebo", "type": "pub", "lat": 51.410022, "lon": -0.30829}, {"name": "The Waterway", "type": "pub", "lat": 51.522666, "lon": -0.187799}, {"name": "Railway Arms", "type": "pub", "lat": 51.509657, "lon": -0.473955}, {"name": "The Steam Packet", "type": "pub", "lat": 51.487403, "lon": -0.284704}, {"name": "Star of the East", "type": "pub", "lat": 51.51222, "lon": -0.028754}, {"name": "Pump Out", "type": "sanitary", "lat": 51.387841, "lon": -0.427004}, {"name": "Black Horse Water Point", "type": "water_point", "lat": 51.547812, "lon": -0.344702}, {"name": "Actons Lock Elsan Point", "type": "sanitary", "lat": 51.535528, "lon": -0.064111}, {"name": "Beer House", "type": "pub", "lat": 51.516782, "lon": -0.176452}, {"name": "The Sir Alexander Fleming", "type": "pub", "lat": 51.518664, "lon": -0.173644}, {"name": "Coppermill Lock Water Point", "type": "water_point", "lat": 51.610654, "lon": -0.498698}, {"name": "Cowley Lock Water Point", "type": "water_point", "lat": 51.52939, "lon": -0.485632}, {"name": "Hanwell Flight Top Water Point", "type": "water_point", "lat": 51.501559, "lon": -0.363705}, {"name": "Bulls Bridge Water Point", "type": "water_point", "lat": 51.499407, "lon": -0.405915}, {"name": "Little Green Dragon", "type": "pub", "lat": 51.636061, "lon": -0.090962}, {"name": "Heist Bank", "type": "pub", "lat": 51.518813, "lon": -0.176148}, {"name": "Nash Mills Top Lock Water Point", "type": "water_point", "lat": 51.729779, "lon": -0.454}, {"name": "City Road Lock Water Point", "type": "water_point", "lat": 51.532879, "lon": -0.099892}, {"name": "Nine Elms Tavern", "type": "pub", "lat": 51.482526, "lon": -0.137502}, {"name": "Fabal Beerhall", "type": "pub", "lat": 51.499377, "lon": -0.074741}, {"name": "Sports Bar & Grill", "type": "pub", "lat": 51.506216, "lon": -0.018514}, {"name": "Northumberland Arms", "type": "pub", "lat": 51.482251, "lon": -0.312771}, {"name": "On Broadway", "type": "pub", "lat": 51.631986, "lon": -0.095741}, {"name": "The Three Wishes", "type": "pub", "lat": 51.631702, "lon": -0.095921}, {"name": "Batchworth Lock Elsan Point", "type": "sanitary", "lat": 51.634721, "lon": -0.466616}, {"name": "Cowley Lock Elsan Point", "type": "sanitary", "lat": 51.529369, "lon": -0.485628}, {"name": "Hanwell Flight Top Elsan Point", "type": "sanitary", "lat": 51.501576, "lon": -0.363636}, {"name": "Alperton Elsan and Water Point", "type": "sanitary", "lat": 51.539048, "lon": -0.296516}, {"name": "Little Venice Water Point", "type": "water_point", "lat": 51.521368, "lon": -0.184453}, {"name": "Sturts Lock Elsan Point", "type": "sanitary", "lat": 51.534944, "lon": -0.091346}, {"name": "Victoria Park Old Ford Lock Elsan Point", "type": "sanitary", "lat": 51.532587, "lon": -0.045546}, {"name": "Victoria Park Water Point", "type": "water_point", "lat": 51.532696, "lon": -0.045771}, {"name": "Victoria Park Old Ford Lock Water Point", "type": "water_point", "lat": 51.532569, "lon": -0.045547}, {"name": "Carthegena Lock Water Point", "type": "water_point", "lat": 51.743591, "lon": -0.002177}, {"name": "The Ice Wharf", "type": "pub", "lat": 51.540758, "lon": -0.145655}, {"name": "Cassiobridge Water Point", "type": "water_point", "lat": 51.654871, "lon": -0.427783}, {"name": "Batchworth Lock Water Point", "type": "water_point", "lat": 51.634759, "lon": -0.466574}, {"name": "Slough Basin Water Point", "type": "water_point", "lat": 51.517269, "lon": -0.589501}, {"name": "Picketts Lock Water Point", "type": "water_point", "lat": 51.626089, "lon": -0.032533}, {"name": "Stonebridge Elsan Point", "type": "sanitary", "lat": 51.597807, "lon": -0.050149}, {"name": "Stonebridge Water Point", "type": "water_point", "lat": 51.597717, "lon": -0.049971}, {"name": "Stonebridge Elsan Point", "type": "sanitary", "lat": 51.597687, "lon": -0.050013}, {"name": "Old Ford Lock Elsan Point", "type": "sanitary", "lat": 51.538061, "lon": -0.020646}, {"name": "The Barrel Project", "type": "pub", "lat": 51.499472, "lon": -0.074879}, {"name": "Apsley Services Elsan Point", "type": "sanitary", "lat": 51.736747, "lon": -0.463986}, {"name": "Apsley Services Water Point", "type": "water_point", "lat": 51.736723, "lon": -0.46396}, {"name": "Middlesex and Herts Boat Services Water Point", "type": "water_point", "lat": 51.746602, "lon": -0.513722}, {"name": "Middlesex and Herts Boat Services Elsan Point", "type": "water_point", "lat": 51.746837, "lon": -0.513484}, {"name": "Middlesex and Herts Boat Services Fuel Pump", "type": "water_point", "lat": 51.746656, "lon": -0.513648}, {"name": "Waterway Experiences Water Point", "type": "water_point", "lat": 51.726983, "lon": -0.451662}, {"name": "Ponders End Water Point", "type": "water_point", "lat": 51.641517, "lon": -0.030084}, {"name": "The Dolphin", "type": "pub", "lat": 51.543604, "lon": -0.487835}, {"name": "Beavertown Brewery Taproom", "type": "pub", "lat": 51.590616, "lon": -0.056796}, {"name": "Last Hop", "type": "pub", "lat": 51.433495, "lon": -0.516168}, {"name": "3 Locks Brewing Company", "type": "pub", "lat": 51.542201, "lon": -0.143334}, {"name": "Werewolf Beer", "type": "pub", "lat": 51.541519, "lon": -0.136387}, {"name": "Crate", "type": "pub", "lat": 51.502831, "lon": -0.013497}, {"name": "Lock (R225)", "type": "lock", "lat": 51.695172, "lon": -0.010056}, {"name": "Lvls", "type": "pub", "lat": 51.54059, "lon": -0.02084}, {"name": "Three Falcons Indian Gastropub", "type": "pub", "lat": 51.524102, "lon": -0.174622}, {"name": "The Red Lion", "type": "pub", "lat": 51.392113, "lon": -0.331971}, {"name": "The City Arms", "type": "pub", "lat": 51.390974, "lon": -0.322322}, {"name": "Atlip Road Pump Out", "type": "pumpout", "lat": 51.539063, "lon": -0.296501}, {"name": "Sanitary Station, Little Venice", "type": "sanitary", "lat": 51.521332, "lon": -0.184541}, {"name": "Sanitary Station, Little Venice", "type": "water_point", "lat": 51.521332, "lon": -0.184541}, {"name": "Sanitary Station, Little Venice", "type": "pumpout", "lat": 51.521332, "lon": -0.184541}, {"name": "Apsley Yard CSF", "type": "sanitary", "lat": 51.736739, "lon": -0.463929}, {"name": "Batchworth CSF", "type": "sanitary", "lat": 51.634721, "lon": -0.466569}, {"name": "Batchworth CSF", "type": "water_point", "lat": 51.634721, "lon": -0.466569}, {"name": "Sanitary Station, Cowley", "type": "sanitary", "lat": 51.529472, "lon": -0.485649}, {"name": "Sanitary Station, Cowley", "type": "water_point", "lat": 51.529472, "lon": -0.485649}, {"name": "Norwood Elsan", "type": "sanitary", "lat": 51.501349, "lon": -0.364143}, {"name": "Sanitary Station, Brentford Lock", "type": "sanitary", "lat": 51.483767, "lon": -0.312015}, {"name": "Sanitary Station, Brentford Lock", "type": "water_point", "lat": 51.483767, "lon": -0.312015}, {"name": "Sanitary Station, Brentford Lock", "type": "pumpout", "lat": 51.483767, "lon": -0.312015}, {"name": "Aspley Wharf Sanitary Station", "type": "pumpout", "lat": 51.736731, "lon": -0.463987}, {"name": "Sanitary Station, Old Ford Lock", "type": "sanitary", "lat": 51.53806, "lon": -0.020654}, {"name": "Sanitary Station, Old Ford Lock", "type": "water_point", "lat": 51.53806, "lon": -0.020654}, {"name": "Sanitary Station, Stonebridge Lock", "type": "sanitary", "lat": 51.597699, "lon": -0.050205}, {"name": "Sanitary Station, Stonebridge Lock", "type": "pumpout", "lat": 51.597699, "lon": -0.050205}, {"name": "Sanitary Station, Old Ford", "type": "sanitary", "lat": 51.532532, "lon": -0.045477}, {"name": "Sanitary Station, Old Ford", "type": "water_point", "lat": 51.532532, "lon": -0.045477}, {"name": "Elsan, Atlip Road", "type": "sanitary", "lat": 51.539062, "lon": -0.296472}, {"name": "Elsan, Lock 7 Acton's Lock", "type": "sanitary", "lat": 51.535535, "lon": -0.063906}, {"name": "Pump Out, Brentford Lock", "type": "pumpout", "lat": 51.483849, "lon": -0.312099}, {"name": "Pump Out, East Wick", "type": "pumpout", "lat": 51.547873, "lon": -0.026069}, {"name": "Pump Out, Lee Navigation", "type": "pumpout", "lat": 51.597643, "lon": -0.050078}, {"name": "Pump Out, Lock 7 Acton's Lock", "type": "pumpout", "lat": 51.535535, "lon": -0.063906}, {"name": "Rubbish Disposal nr Br 3C, Westbourne", "type": "refuse", "lat": 51.521324, "lon": -0.184599}, {"name": "Rubbish Disposal", "type": "refuse", "lat": 51.744216, "lon": -0.491341}, {"name": "Rubbish Disposal, Apsley Yard", "type": "refuse", "lat": 51.736712, "lon": -0.463886}, {"name": "Rubbish Disposal, Br 159, Home Park", "type": "refuse", "lat": 51.706574, "lon": -0.442329}, {"name": "Rubbish Disposal, Batchworth", "type": "refuse", "lat": 51.634722, "lon": -0.466626}, {"name": "Rubbish Disposal nr Bridge 177", "type": "refuse", "lat": 51.609951, "lon": -0.49883}, {"name": "Rubbish Disposal nr Culvert, u/s Br188", "type": "refuse", "lat": 51.53014, "lon": -0.485857}, {"name": "Rubbish Disposal, Cowley Moorings", "type": "refuse", "lat": 51.530077, "lon": -0.485859}, {"name": "Rubbish Disposal nr Lock 90, Hanwell", "type": "refuse", "lat": 51.501736, "lon": -0.363567}, {"name": "Rubbish Disposal, Chess Basin L1", "type": "refuse", "lat": 51.636182, "lon": -0.465508}, {"name": "Rubbish Disposal, Lock 1, Limehouse", "type": "refuse", "lat": 51.509983, "lon": -0.036571}, {"name": "Rubbish Disposal, Old Ford Lock (R. Lee)", "type": "refuse", "lat": 51.538158, "lon": -0.021096}, {"name": "Rubbish Point, St Pancras Carpark", "type": "refuse", "lat": 51.535801, "lon": -0.128393}, {"name": "Refuse Disposal, City Road Lock", "type": "refuse", "lat": 51.532914, "lon": -0.099862}, {"name": "Rubbish Disposal, Lock 8, Old Ford Lock", "type": "refuse", "lat": 51.53257, "lon": -0.045576}, {"name": "Water Point, Bridge 15, Black Horse Br", "type": "water_point", "lat": 51.547853, "lon": -0.344576}, {"name": "Water Point, Bridge 15, Black Horse Br", "type": "refuse", "lat": 51.547853, "lon": -0.344576}, {"name": "Water Point, Little Venice", "type": "water_point", "lat": 51.521088, "lon": -0.183874}, {"name": "Water Point, Little Venice", "type": "refuse", "lat": 51.521088, "lon": -0.183874}, {"name": "Water Point, Paddington", "type": "water_point", "lat": 51.519884, "lon": -0.179857}, {"name": "Water Point, Paddington", "type": "refuse", "lat": 51.519884, "lon": -0.179857}, {"name": "Water Point, Apsley Yard", "type": "water_point", "lat": 51.736785, "lon": -0.463956}, {"name": "Water Point, Apsley Yard", "type": "refuse", "lat": 51.736785, "lon": -0.463956}, {"name": "Water Point", "type": "water_point", "lat": 51.729784, "lon": -0.454}, {"name": "Water Point", "type": "refuse", "lat": 51.729784, "lon": -0.454}, {"name": "Water Point, Cassiobridge", "type": "water_point", "lat": 51.654586, "lon": -0.427776}, {"name": "Water Point, Cassiobridge", "type": "refuse", "lat": 51.654586, "lon": -0.427776}, {"name": "Water Point, Batchworth", "type": "water_point", "lat": 51.634758, "lon": -0.466611}, {"name": "Water Point, Batchworth", "type": "refuse", "lat": 51.634758, "lon": -0.466611}, {"name": "Water Point , Coppermill Lk", "type": "water_point", "lat": 51.610677, "lon": -0.49869}, {"name": "Water Point , Coppermill Lk", "type": "refuse", "lat": 51.610677, "lon": -0.49869}, {"name": "Water Point, Grand Union Canal", "type": "water_point", "lat": 51.499445, "lon": -0.406137}, {"name": "Water Point, Grand Union Canal", "type": "refuse", "lat": 51.499445, "lon": -0.406137}, {"name": "Water Point, Norwood Yard", "type": "water_point", "lat": 51.501358, "lon": -0.364186}, {"name": "Water Point, Norwood Yard", "type": "refuse", "lat": 51.501358, "lon": -0.364186}, {"name": "Water Point, East Wick", "type": "water_point", "lat": 51.547818, "lon": -0.026014}, {"name": "Water Point, East Wick", "type": "refuse", "lat": 51.547818, "lon": -0.026014}, {"name": "Water Point, Lee Navigation", "type": "water_point", "lat": 51.597713, "lon": -0.049974}, {"name": "Water Point, Lee Navigation", "type": "refuse", "lat": 51.597713, "lon": -0.049974}, {"name": "Water Point, Lock 15, Picketts Lock", "type": "water_point", "lat": 51.626027, "lon": -0.03252}, {"name": "Water Point, Lock 15, Picketts Lock", "type": "refuse", "lat": 51.626027, "lon": -0.03252}, {"name": "Water Point, Ponders End Lock", "type": "water_point", "lat": 51.641542, "lon": -0.030041}, {"name": "Water Point, Ponders End Lock", "type": "refuse", "lat": 51.641542, "lon": -0.030041}, {"name": "Water Point, Hazelmere Marina", "type": "water_point", "lat": 51.685452, "lon": -0.011223}, {"name": "Water Point, Hazelmere Marina", "type": "refuse", "lat": 51.685452, "lon": -0.011223}, {"name": "Water Point, Lock 7, Carthagena Lock", "type": "water_point", "lat": 51.743606, "lon": -0.002123}, {"name": "Water Point, Lock 7, Carthagena Lock", "type": "refuse", "lat": 51.743606, "lon": -0.002123}, {"name": "Water Point, City Road Lock", "type": "water_point", "lat": 51.532853, "lon": -0.099966}, {"name": "Water Point, City Road Lock", "type": "refuse", "lat": 51.532853, "lon": -0.099966}, {"name": "Water Point, Mile End", "type": "water_point", "lat": 51.527856, "lon": -0.040098}, {"name": "Water Point, Mile End", "type": "refuse", "lat": 51.527856, "lon": -0.040098}, {"name": "Water Point, Mile End Park", "type": "water_point", "lat": 51.527803, "lon": -0.040172}, {"name": "Water Point, Mile End Park", "type": "refuse", "lat": 51.527803, "lon": -0.040172}, {"name": "River Thames", "type": "waterway", "lat": 51.477451, "lon": -0.581414}, {"name": "River Lee Navigation", "type": "waterway", "lat": 51.74221, "lon": -0.009172}, {"name": "Limehouse Cut", "type": "waterway", "lat": 51.514884, "lon": -0.025799}, {"name": "New River", "type": "waterway", "lat": 51.638962, "lon": -0.08653}, {"name": "Lee Navigation", "type": "waterway", "lat": 51.527294, "lon": -0.008451}, {"name": "Powedermill Cut", "type": "waterway", "lat": 51.698468, "lon": -0.015901}, {"name": "River Lea", "type": "waterway", "lat": 51.742945, "lon": -0.014043}, {"name": "Grand Union Canal", "type": "waterway", "lat": 51.510123, "lon": -0.470927}, {"name": "Grand Union Canal (Paddington Branch)", "type": "waterway", "lat": 51.499859, "lon": -0.406707}, {"name": "Regent's Canal", "type": "waterway", "lat": 51.523211, "lon": -0.179467}, {"name": "River Neckinger", "type": "waterway", "lat": 51.50142, "lon": -0.072085}, {"name": "Grand Union Canal - Slough Arm", "type": "waterway", "lat": 51.517324, "lon": -0.481825}, {"name": "Brent Canal Feeder", "type": "waterway", "lat": 51.546539, "lon": -0.261095}, {"name": "New River Loop (bypassed)", "type": "waterway", "lat": 51.648048, "lon": -0.087512}, {"name": "The Duke of Northumberland's River", "type": "waterway", "lat": 51.447358, "lon": -0.346947}, {"name": "Islington Tunnel (Regent's Canal)", "type": "waterway", "lat": 51.53477, "lon": -0.114809}, {"name": "River Lee", "type": "waterway", "lat": 51.568343, "lon": -0.052669}, {"name": "Albion Channel", "type": "waterway", "lat": 51.501242, "lon": -0.045444}, {"name": "St Thomas Creek", "type": "waterway", "lat": 51.532954, "lon": -0.009436}, {"name": "Salter's Cut", "type": "waterway", "lat": 51.634924, "lon": -0.466657}, {"name": "Osterley Lock 98 5,7\"", "type": "waterway", "lat": 51.496677, "lon": -0.332531}, {"name": "Hanwell Lock", "type": "waterway", "lat": 51.503742, "lon": -0.344493}, {"name": "Carthagena Lock 5'", "type": "waterway", "lat": 51.743502, "lon": -0.002257}, {"name": "Hertford Union Canal", "type": "waterway", "lat": 51.541912, "lon": -0.021438}, {"name": "11 Salmon Lane Lock 8'", "type": "waterway", "lat": 51.514747, "lon": -0.034893}, {"name": "10 Johnson's Lock 8'", "type": "waterway", "lat": 51.519555, "lon": -0.036233}, {"name": "8 Old Ford lock 8'", "type": "waterway", "lat": 51.532348, "lon": -0.045345}, {"name": "Grand Union Canal (Paddington Arm)", "type": "waterway", "lat": 51.547903, "lon": -0.34474}, {"name": "Bow Locks", "type": "waterway", "lat": 51.522899, "lon": -0.008205}, {"name": "87 Denham Deep Lock 11'1\"", "type": "waterway", "lat": 51.565259, "lon": -0.482194}, {"name": "Clitheroes lock 99 7,7\"", "type": "waterway", "lat": 51.488892, "lon": -0.321491}, {"name": "Hanwell Locks 91-97 53,2\"", "type": "waterway", "lat": 51.50518, "lon": -0.352343}, {"name": "Staines Reservoirs Aqueduct", "type": "waterway", "lat": 51.437699, "lon": -0.503376}, {"name": "River Wey", "type": "waterway", "lat": 51.380643, "lon": -0.457327}, {"name": "Dead Dog Tunnel", "type": "waterway", "lat": 51.540843, "lon": -0.146773}, {"name": "2 Hawley lock 8'", "type": "waterway", "lat": 51.541712, "lon": -0.143801}, {"name": "3 Kentish Town lock 8'", "type": "waterway", "lat": 51.541528, "lon": -0.14226}, {"name": "1 Hampstead Road lock 8'", "type": "waterway", "lat": 51.541179, "lon": -0.145558}, {"name": "St Pancras Lock   Regents Canal Lock 4", "type": "waterway", "lat": 51.536051, "lon": -0.127814}, {"name": "6 Sturts lock 8'", "type": "waterway", "lat": 51.535036, "lon": -0.09155}, {"name": "Norwood Top Lock 90 7,10\"", "type": "waterway", "lat": 51.501843, "lon": -0.36313}, {"name": "Hanwell Lock 91 7,11\"", "type": "waterway", "lat": 51.50318, "lon": -0.359542}, {"name": "River Wey Navigation", "type": "waterway", "lat": 51.378096, "lon": -0.460846}, {"name": "Basingstoke Canal", "type": "waterway", "lat": 51.344572, "lon": -0.497465}, {"name": "Broadmead Cut", "type": "waterway", "lat": 51.297108, "lon": -0.534362}, {"name": "Intake Channel", "type": "waterway", "lat": 51.413213, "lon": -0.494175}, {"name": "Connaught Passage", "type": "waterway", "lat": 51.506708, "lon": 0.040361}, {"name": "Entrance Lock", "type": "waterway", "lat": 51.508524, "lon": 0.003251}, {"name": "Desborough Cut", "type": "waterway", "lat": 51.382984, "lon": -0.442303}, {"name": "Springwell Lock 83 7'11\"", "type": "waterway", "lat": 51.625454, "lon": -0.494728}, {"name": "Coppermill Lock 84 5'10\"", "type": "waterway", "lat": 51.610824, "lon": -0.498429}, {"name": "Troy Arm", "type": "waterway", "lat": 51.605389, "lon": -0.50396}, {"name": "Black Jacks Lock 85 3'8\"", "type": "waterway", "lat": 51.602428, "lon": -0.495276}, {"name": "86 Widewater Lock 8'", "type": "waterway", "lat": 51.587487, "lon": -0.486016}, {"name": "88 Uxbridge Lock 4'7\"", "type": "waterway", "lat": 51.552374, "lon": -0.48351}, {"name": "89 Cowley Lock 6'6\"", "type": "waterway", "lat": 51.528811, "lon": -0.4857}, {"name": "Thames Locks", "type": "waterway", "lat": 51.48228, "lon": -0.304451}, {"name": "7 Actons Lock 8'", "type": "waterway", "lat": 51.535629, "lon": -0.063587}, {"name": "Redway Lock", "type": "waterway", "lat": 51.313074, "lon": -0.595297}, {"name": "City Mill Lock", "type": "waterway", "lat": 51.533327, "lon": -0.009066}, {"name": "River Lee Navigation (Hackney Cut)", "type": "waterway", "lat": 51.556928, "lon": -0.037839}, {"name": "South Dock Lock", "type": "waterway", "lat": 51.494044, "lon": -0.033728}, {"name": "St Katharine Docks Lock", "type": "waterway", "lat": 51.506548, "lon": -0.072058}, {"name": "Staines Reservoir Aqueduct", "type": "waterway", "lat": 51.436607, "lon": -0.49988}, {"name": "Mile End Lock", "type": "waterway", "lat": 51.525001, "lon": -0.037771}, {"name": "Common lock", "type": "waterway", "lat": 51.698504, "lon": -0.018507}, {"name": "BR15", "type": "waterway", "lat": 51.701487, "lon": -0.010156}, {"name": "West India Docks Entrace Lock", "type": "waterway", "lat": 51.501419, "lon": -0.011572}, {"name": "South Dock", "type": "waterway", "lat": 51.493876, "lon": -0.036025}, {"name": "Steelyard Cut", "type": "waterway", "lat": 51.49468, "lon": -0.03644}, {"name": "Greenland Dock", "type": "waterway", "lat": 51.494911, "lon": -0.037769}, {"name": "East Dock", "type": "waterway", "lat": 51.507081, "lon": -0.07048}, {"name": "West Dock", "type": "waterway", "lat": 51.507466, "lon": -0.073185}, {"name": "Central Basin", "type": "waterway", "lat": 51.506712, "lon": -0.071965}, {"name": "Chelsea Harbour Lock", "type": "waterway", "lat": 51.474939, "lon": -0.180614}, {"name": "Chelsea Harbour Marina", "type": "waterway", "lat": 51.475154, "lon": -0.180924}, {"name": "Chiswick Quay Lock", "type": "waterway", "lat": 51.475463, "lon": -0.271155}, {"name": "Chiswick Quay Marina", "type": "waterway", "lat": 51.476266, "lon": -0.270174}, {"name": "Brentford Dock Lock", "type": "waterway", "lat": 51.481907, "lon": -0.301031}, {"name": "Brentford Dock Marina", "type": "waterway", "lat": 51.48203, "lon": -0.301697}, {"name": "Penton Hook Marina", "type": "waterway", "lat": 51.411369, "lon": -0.505473}, {"name": "Limehouse Basin Lock", "type": "waterway", "lat": 51.510183, "lon": -0.036481}]